TIME;ACC[ROLL];GYRO[ROLL];ANGLE[ROLL];TARGET_ANGLE[ROLL];FRAME_ANGLE[ROLL];POWER[ROLL];ACC[PITCH];GYRO[PITCH];ANGLE[PITCH];TARGET_ANGLE[PITCH];FRAME_ANGLE[PITCH];POWER[PITCH];ACC[YAW];GYRO[YAW];ANGLE[YAW];TARGET_ANGLE[YAW];FRAME_ANGLE[YAW];POWER[YAW];RC_ROLL;RC_PITCH;RC_YAW;RC_CMD;EXT_FC_ROLL;EXT_FC_PITCH;BAT_VOLTAGE;RMS_ERR[ROLL];FREQ[ROLL];RMS_ERR[PITCH];FREQ[PITCH];RMS_ERR[YAW];FREQ[YAW]
02:06:01.821;-79;-11;-8.723145;0.0;-8.745117;0;-7;23;-1.3623047;0.0;-1.9555664;0;502;1;8.217773;0.0;0.0;0;;;;;;;0;0;0;0;0;0;0
02:06:01.999;-84;-3;-8.76709;0.0;-8.7890625;0;-7;5;-1.3842773;0.0;-1.9995117;0;508;0;8.217773;0.0;0.0;0;;;;;;;0;0;0;0;0;0;0
02:06:02.58;-77;0;-8.76709;0.0;-8.76709;0;-3;4;-1.3842773;0.0;-1.9995117;0;506;0;8.217773;0.0;0.0;0;;;;;;;0;3;56;2;70;0;203
02:06:02.108;-82;4;-8.745117;0.0;-8.76709;0;-6;-4;-1.3842773;0.0;-1.9995117;0;508;1;8.217773;0.0;0.0;0;;;;;;;0;4;55;2;69;0;212
02:06:02.155;-82;-4;-8.745117;0.0;-8.76709;0;-5;12;-1.3842773;0.0;-1.9995117;0;509;0;8.217773;0.0;0.0;0;;;;;;;0;7;56;4;67;0;223
02:06:02.213;-80;3;-8.723145;0.0;-8.745117;0;-5;1;-1.3842773;0.0;-1.9775391;0;508;0;8.217773;0.0;0.0;0;;;;;;;0;5;55;2;65;0;218
02:06:02.259;-83;6;-8.723145;0.0;-8.745117;0;-5;-11;-1.3842773;0.0;-1.9775391;0;508;-1;8.217773;0.0;0.0;0;;;;;;;0;2;56;2;68;1;217
02:06:02.316;-83;2;-8.745117;0.0;-8.745117;0;-5;-4;-1.3842773;0.0;-1.9775391;0;510;0;8.217773;0.0;0.0;0;;;;;;;0;5;55;3;66;0;207
02:06:02.362;-80;2;-8.745117;0.0;-8.745117;0;-5;0;-1.3842773;0.0;-1.9775391;0;510;0;8.217773;0.0;0.0;0;;;;;;;0;3;55;2;65;0;198
02:06:02.415;-82;0;-8.745117;0.0;-8.76709;0;-5;3;-1.3842773;0.0;-1.9995117;0;508;0;8.217773;0.0;0.0;0;;;;;;;0;2;55;1;70;0;209
02:06:02.461;-80;0;-8.76709;0.0;-8.76709;0;-5;1;-1.3842773;0.0;-1.9995117;0;507;0;8.217773;0.0;0.0;0;;;;;;;0;2;54;1;71;0;195
02:06:02.516;-82;11;-8.745117;0.0;-8.76709;0;-4;-16;-1.3842773;0.0;-1.9995117;0;510;0;8.217773;0.0;0.0;0;;;;;;;0;5;54;3;69;1;208
02:06:02.564;-79;-6;-8.76709;0.0;-8.76709;0;-5;14;-1.40625;0.0;-1.9995117;0;510;0;8.217773;0.0;0.0;0;;;;;;;0;8;54;5;68;0;208
02:06:02.621;-80;-2;-8.76709;0.0;-8.76709;0;-7;6;-1.40625;0.0;-1.9995117;0;512;0;8.217773;0.0;0.0;0;;;;;;;0;8;54;4;66;0;194
02:06:02.670;-82;1;-8.745117;0.0;-8.76709;0;-7;-3;-1.3842773;0.0;-1.9995117;0;510;-1;8.217773;0.0;0.0;0;;;;;;;0;7;54;4;65;1;195
02:06:02.725;-81;2;-8.745117;0.0;-8.76709;0;-7;-5;-1.3842773;0.0;-1.9995117;0;508;0;8.217773;0.0;0.0;0;;;;;;;0;4;53;3;64;0;186
02:06:02.775;-77;-12;-8.745117;0.0;-8.76709;0;-6;23;-1.40625;0.0;-1.9995117;0;503;1;8.217773;0.0;0.0;0;;;;;;;0;5;53;2;63;0;207
02:06:02.827;-82;-3;-8.745117;0.0;-8.745117;0;-4;8;-1.3842773;0.0;-1.9995117;0;506;2;8.217773;0.0;0.0;0;;;;;;;0;12;53;6;62;0;216
02:06:02.876;-80;6;-8.745117;0.0;-8.745117;0;-5;-7;-1.3842773;0.0;-1.9995117;0;506;0;8.217773;0.0;0.0;0;;;;;;;0;6;52;4;62;1;240
02:06:02.923;-80;0;-8.745117;0.0;-8.745117;0;-8;-1;-1.40625;0.0;-1.9995117;0;506;-1;8.217773;0.0;0.0;0;;;;;;;0;5;53;2;61;1;226
02:06:02.980;-80;0;-8.745117;0.0;-8.76709;0;-5;4;-1.40625;0.0;-2.0214844;0;507;0;8.217773;0.0;0.0;0;;;;;;;0;2;53;1;60;1;239
02:06:03.28;-80;0;-8.745117;0.0;-8.76709;0;-6;2;-1.40625;0.0;-2.0214844;0;508;0;8.217773;0.0;0.0;0;;;;;;;0;3;53;1;83;1;248
02:06:03.77;-81;-2;-8.76709;0.0;-8.76709;0;-5;4;-1.40625;0.0;-2.0214844;0;512;0;8.217773;0.0;0.0;0;;;;;;;0;3;53;1;81;1;238
02:06:03.124;-82;3;-8.745117;0.0;-8.76709;0;-5;-9;-1.40625;0.0;-2.0214844;0;511;-1;8.217773;0.0;0.0;0;;;;;;;0;5;53;2;87;1;233
02:06:03.183;-85;3;-8.745117;0.0;-8.76709;0;-7;-2;-1.40625;0.0;-2.0214844;0;504;1;8.217773;0.0;0.0;0;;;;;;;0;6;53;3;85;0;229
02:06:03.231;-81;2;-8.745117;0.0;-8.76709;0;-5;2;-1.40625;0.0;-2.0214844;0;509;1;8.217773;0.0;0.0;0;;;;;;;0;8;53;5;81;1;222
02:06:03.288;-78;-3;-8.745117;0.0;-8.745117;0;-5;5;-1.40625;0.0;-2.0214844;0;509;0;8.239746;0.0;0.0;0;;;;;;;0;8;53;4;79;1;241
02:06:03.336;-81;-1;-8.745117;0.0;-8.745117;0;-5;2;-1.40625;0.0;-2.0214844;0;505;0;8.239746;0.0;0.0;0;;;;;;;0;3;54;2;77;1;227
02:06:03.384;-84;5;-8.745117;0.0;-8.745117;0;-5;-10;-1.40625;0.0;-2.0214844;0;507;0;8.239746;0.0;0.0;0;;;;;;;0;4;53;2;75;1;212
02:06:03.440;-80;-13;-8.745117;0.0;-8.745117;0;-6;24;-1.40625;0.0;-2.0214844;0;510;1;8.239746;0.0;0.0;0;;;;;;;0;11;53;6;73;1;199
02:06:03.488;-81;8;-8.745117;0.0;-8.745117;0;-5;-15;-1.40625;0.0;-2.0214844;0;507;-1;8.239746;0.0;0.0;0;;;;;;;0;15;52;8;71;1;188
02:06:03.545;-82;0;-8.76709;0.0;-8.76709;0;-7;-7;-1.40625;0.0;-2.043457;0;506;-1;8.239746;0.0;0.0;0;;;;;;;0;9;52;5;70;0;204
02:06:03.593;-79;3;-8.76709;0.0;-8.76709;0;-7;-1;-1.40625;0.0;-2.043457;0;509;1;8.239746;0.0;0.0;0;;;;;;;0;7;52;4;68;0;197
02:06:03.640;-83;0;-8.76709;0.0;-8.76709;0;-7;-1;-1.40625;0.0;-2.043457;0;509;1;8.239746;0.0;0.0;0;;;;;;;0;4;53;2;67;1;193
02:06:03.696;-79;6;-8.745117;0.0;-8.745117;0;-7;-3;-1.40625;0.0;-2.043457;0;508;-2;8.239746;0.0;0.0;0;;;;;;;0;12;53;7;66;1;190
02:06:03.744;-77;-5;-8.745117;0.0;-8.745117;0;-5;16;-1.40625;0.0;-2.043457;0;509;2;8.239746;0.0;0.0;0;;;;;;;0;11;54;6;65;0;191
02:06:03.791;-81;1;-8.745117;0.0;-8.745117;0;-9;-2;-1.40625;0.0;-2.043457;0;506;-1;8.239746;0.0;0.0;0;;;;;;;0;12;53;7;64;0;232
02:06:03.848;-81;0;-8.745117;0.0;-8.745117;0;-5;-3;-1.40625;0.0;-2.043457;0;510;-2;8.239746;0.0;0.0;0;;;;;;;0;6;54;3;64;1;222
02:06:03.896;-82;2;-8.745117;0.0;-8.745117;0;-6;-2;-1.40625;0.0;-2.043457;0;510;0;8.239746;0.0;0.0;0;;;;;;;0;8;53;4;61;0;206
02:06:03.945;-82;1;-8.745117;0.0;-8.745117;0;-5;0;-1.40625;0.0;-2.043457;0;509;0;8.239746;0.0;0.0;0;;;;;;;0;3;55;1;61;1;209
02:06:04.01;-83;7;-8.745117;0.0;-8.745117;0;-6;-11;-1.40625;0.0;-2.043457;0;503;0;8.239746;0.0;0.0;0;;;;;;;0;2;54;1;76;0;218
02:06:04.51;-82;1;-8.745117;0.0;-8.76709;0;-4;0;-1.4282227;0.0;-2.0654297;0;511;0;8.239746;0.0;0.0;0;;;;;;;0;12;54;6;75;1;228
02:06:04.100;-84;-3;-8.76709;0.0;-8.76709;0;-7;3;-1.4282227;0.0;-2.0654297;0;504;0;8.239746;0.0;0.0;0;;;;;;;0;8;54;5;73;1;225
02:06:04.154;-82;1;-8.76709;0.0;-8.76709;0;-8;-1;-1.4282227;0.0;-2.0654297;0;510;0;8.239746;0.0;0.0;0;;;;;;;0;6;54;4;71;1;215
02:06:04.202;-81;0;-8.76709;0.0;-8.76709;0;-6;3;-1.4282227;0.0;-2.0654297;0;509;2;8.239746;0.0;0.0;0;;;;;;;0;3;53;1;71;1;204
02:06:04.250;-82;1;-8.745117;0.0;-8.76709;0;-7;0;-1.4282227;0.0;-2.0654297;0;506;0;8.239746;0.0;0.0;0;;;;;;;0;3;54;2;71;1;206
02:06:04.307;-83;-9;-8.745117;0.0;-8.745117;0;-6;14;-1.4282227;0.0;-2.0654297;0;503;0;8.239746;0.0;0.0;0;;;;;;;0;7;54;4;69;0;206
02:06:04.355;-80;1;-8.745117;0.0;-8.745117;0;-7;-5;-1.40625;0.0;-2.0654297;0;505;-1;8.239746;0.0;0.0;0;;;;;;;0;8;54;4;68;1;221
02:06:04.403;-82;1;-8.745117;0.0;-8.745117;0;-6;-2;-1.40625;0.0;-2.0654297;0;509;0;8.239746;0.0;0.0;0;;;;;;;0;5;53;3;66;1;212
02:06:04.459;-80;2;-8.745117;0.0;-8.745117;0;-3;-4;-1.40625;0.0;-2.0654297;0;509;0;8.239746;0.0;0.0;0;;;;;;;0;3;53;2;65;0;209
02:06:04.507;-80;3;-8.745117;0.0;-8.745117;0;-7;-1;-1.40625;0.0;-2.0654297;0;510;-1;8.239746;0.0;0.0;0;;;;;;;0;2;54;1;65;1;205
02:06:04.555;-80;-2;-8.745117;0.0;-8.745117;0;-3;7;-1.4282227;0.0;-2.0654297;0;509;0;8.239746;0.0;0.0;0;;;;;;;0;3;54;1;65;1;197
02:06:04.612;-81;0;-8.745117;0.0;-8.76709;0;-4;1;-1.4282227;0.0;-2.0654297;0;508;-1;8.239746;0.0;0.0;0;;;;;;;0;4;54;2;64;1;201
02:06:04.662;-84;1;-8.745117;0.0;-8.76709;0;-6;-4;-1.4282227;0.0;-2.0654297;0;507;-1;8.239746;0.0;0.0;0;;;;;;;0;6;53;4;63;1;215
02:06:04.710;-80;0;-8.76709;0.0;-8.76709;0;-5;6;-1.4282227;0.0;-2.0654297;0;508;1;8.239746;0.0;0.0;0;;;;;;;0;5;54;3;62;0;209
02:06:04.767;-81;0;-8.745117;0.0;-8.76709;0;-4;2;-1.4282227;0.0;-2.0654297;0;507;-4;8.239746;0.0;0.0;0;;;;;;;0;3;53;2;61;1;203
02:06:04.815;-81;-2;-8.745117;0.0;-8.745117;0;-6;0;-1.4282227;0.0;-2.0654297;0;504;-1;8.239746;0.0;0.0;0;;;;;;;0;2;53;1;72;1;189
02:06:04.862;-81;-2;-8.745117;0.0;-8.745117;0;-6;4;-1.4282227;0.0;-2.0654297;0;504;0;8.239746;0.0;0.0;0;;;;;;;0;6;53;3;71;1;178
02:06:04.918;-80;-1;-8.745117;0.0;-8.745117;0;-7;2;-1.40625;0.0;-2.0654297;0;507;0;8.239746;0.0;0.0;0;;;;;;;0;3;53;1;77;1;181
02:06:04.966;-80;0;-8.745117;0.0;-8.745117;0;-6;-2;-1.40625;0.0;-2.0654297;0;508;-1;8.239746;0.0;0.0;0;;;;;;;0;3;54;2;78;1;183
02:06:05.16;-81;1;-8.745117;0.0;-8.745117;0;-5;0;-1.4282227;0.0;-2.0654297;0;506;-3;8.239746;0.0;0.0;0;;;;;;;0;3;54;2;83;1;181
02:06:05.72;-78;0;-8.745117;0.0;-8.745117;0;-7;-4;-1.4282227;0.0;-2.0654297;0;511;-2;8.239746;0.0;0.0;0;;;;;;;0;2;55;1;85;1;172
02:06:05.119;-81;1;-8.745117;0.0;-8.745117;0;-6;-2;-1.4282227;0.0;-2.0654297;0;508;0;8.239746;0.0;0.0;0;;;;;;;0;2;55;1;89;0;169
02:06:05.176;-84;0;-8.745117;0.0;-8.745117;0;-8;1;-1.4282227;0.0;-2.0654297;0;508;0;8.239746;0.0;0.0;0;;;;;;;0;1;60;1;102;0;169
02:06:05.224;-81;-1;-8.76709;0.0;-8.745117;0;-5;5;-1.4282227;0.0;-2.0654297;0;507;-2;8.239746;0.0;0.0;0;;;;;;;0;1;73;0;124;0;178
02:06:05.272;-79;0;-8.745117;0.0;-8.745117;0;-5;3;-1.4282227;0.0;-2.0654297;0;507;-1;8.239746;0.0;0.0;0;;;;;;;0;1;80;1;133;1;202
02:06:05.328;-81;1;-8.745117;0.0;-8.745117;0;-5;-2;-1.4282227;0.0;-2.0654297;0;509;0;8.239746;0.0;0.0;0;;;;;;;0;2;96;1;128;1;202
02:06:05.376;-81;0;-8.745117;0.0;-8.745117;0;-7;-3;-1.4282227;0.0;-2.0654297;0;509;0;8.239746;0.0;0.0;0;;;;;;;0;2;97;1;129;1;205
02:06:05.432;-80;2;-8.745117;0.0;-8.745117;0;-5;-2;-1.40625;0.0;-2.0654297;0;510;0;8.239746;0.0;0.0;0;;;;;;;0;1;98;0;125;1;214
02:06:05.480;-80;-1;-8.745117;0.0;-8.745117;0;-5;0;-1.40625;0.0;-2.0654297;0;503;0;8.239746;0.0;0.0;0;;;;;;;0;1;117;1;126;1;200
02:06:05.529;-81;1;-8.745117;0.0;-8.745117;0;-5;-1;-1.40625;0.0;-2.0654297;0;509;0;8.217773;0.0;0.0;0;;;;;;;0;1;125;1;132;1;195
02:06:05.586;-83;5;-8.745117;0.0;-8.745117;0;-6;-8;-1.40625;0.0;-2.0654297;0;508;0;8.217773;0.0;0.0;0;;;;;;;0;4;123;2;132;1;234
02:06:05.634;-80;0;-8.745117;0.0;-8.76709;0;-5;-1;-1.40625;0.0;-2.0654297;0;507;1;8.217773;0.0;0.0;0;;;;;;;0;4;117;2;125;0;230
02:06:05.690;-80;-1;-8.745117;0.0;-8.76709;0;-6;0;-1.40625;0.0;-2.0654297;0;507;0;8.217773;0.0;0.0;0;;;;;;;0;2;112;1;127;1;227
02:06:05.737;-79;1;-8.76709;0.0;-8.76709;0;-6;0;-1.40625;0.0;-2.0654297;0;509;0;8.217773;0.0;0.0;0;;;;;;;0;2;111;1;129;0;210
02:06:05.785;-80;-2;-8.76709;0.0;-8.76709;0;-8;5;-1.40625;0.0;-2.0654297;0;511;0;8.217773;0.0;0.0;0;;;;;;;0;1;110;1;125;1;207
02:06:05.841;-81;-5;-8.76709;0.0;-8.76709;0;-4;4;-1.40625;0.0;-2.0654297;0;509;0;8.239746;0.0;0.0;0;;;;;;;0;3;109;2;128;1;198
02:06:05.893;-79;6;-8.76709;0.0;-8.76709;0;-5;-6;-1.40625;0.0;-2.0654297;0;510;0;8.217773;0.0;0.0;0;;;;;;;0;4;106;2;122;1;205
02:06:05.940;-83;-4;-8.76709;0.0;-8.76709;0;-8;6;-1.40625;0.0;-2.0654297;0;505;0;8.239746;0.0;0.0;0;;;;;;;0;5;101;2;117;1;194
02:06:05.998;-79;-5;-8.745117;0.0;-8.76709;0;-4;5;-1.40625;0.0;-2.0654297;0;510;1;8.239746;0.0;0.0;0;;;;;;;0;4;97;2;111;1;193
02:06:06.45;-82;8;-8.76709;0.0;-8.76709;0;-3;-13;-1.40625;0.0;-2.0654297;0;511;-1;8.239746;0.0;0.0;0;;;;;;;0;6;94;3;108;0;199
02:06:06.99;-83;-7;-8.76709;0.0;-8.76709;0;-8;13;-1.40625;0.0;-2.0654297;0;506;0;8.239746;0.0;0.0;0;;;;;;;0;7;90;4;103;1;205
02:06:06.148;-81;10;-8.76709;0.0;-8.76709;0;-5;-18;-1.40625;0.0;-2.0654297;0;512;-3;8.217773;0.0;0.0;0;;;;;;;0;17;87;10;98;1;202
02:06:06.195;-81;-12;-8.76709;0.0;-8.76709;0;-5;16;-1.40625;0.0;-2.0654297;0;507;0;8.217773;0.0;0.0;0;;;;;;;0;14;84;8;95;1;199
02:06:06.252;-81;-2;-8.76709;0.0;-8.76709;0;-7;7;-1.40625;0.0;-2.0654297;0;506;0;8.217773;0.0;0.0;0;;;;;;;0;12;82;7;92;1;191
02:06:06.300;-79;0;-8.76709;0.0;-8.76709;0;-8;-1;-1.40625;0.0;-2.0654297;0;512;0;8.217773;0.0;0.0;0;;;;;;;0;5;81;2;89;0;180
02:06:06.349;-81;-1;-8.76709;0.0;-8.76709;0;-6;5;-1.40625;0.0;-2.0654297;0;512;0;8.217773;0.0;0.0;0;;;;;;;0;5;78;2;87;1;190
02:06:06.403;-81;-6;-8.76709;0.0;-8.7890625;0;-6;10;-1.40625;0.0;-2.0654297;0;502;2;8.217773;0.0;0.0;0;;;;;;;0;9;76;4;84;0;220
02:06:06.451;-82;0;-8.76709;0.0;-8.76709;0;-6;-1;-1.40625;0.0;-2.0654297;0;513;0;8.217773;0.0;0.0;0;;;;;;;0;15;75;8;83;1;220
02:06:06.499;-79;4;-8.76709;0.0;-8.76709;0;-7;-8;-1.40625;0.0;-2.0654297;0;508;-1;8.217773;0.0;0.0;0;;;;;;;0;8;72;4;80;0;211
02:06:06.558;-81;-10;-8.76709;0.0;-8.76709;0;-7;19;-1.40625;0.0;-2.0654297;0;507;0;8.217773;0.0;0.0;0;;;;;;;0;9;71;5;77;1;206
02:06:06.606;-84;-1;-8.76709;0.0;-8.76709;0;-5;1;-1.40625;0.0;-2.043457;0;509;2;8.217773;0.0;0.0;0;;;;;;;0;15;69;8;76;0;208
02:06:06.662;-81;-4;-8.76709;0.0;-8.76709;0;-7;10;-1.40625;0.0;-2.0654297;0;505;1;8.217773;0.0;0.0;0;;;;;;;0;11;68;6;73;1;208
02:06:06.711;-80;9;-8.76709;0.0;-8.76709;0;-5;-16;-1.40625;0.0;-2.0654297;0;508;0;8.217773;0.0;0.0;0;;;;;;;0;15;66;9;71;1;208
02:06:06.759;-81;-3;-8.76709;0.0;-8.76709;0;-7;8;-1.40625;0.0;-2.0654297;0;507;0;8.217773;0.0;0.0;0;;;;;;;0;12;65;7;70;1;213
02:06:06.817;-80;-7;-8.76709;0.0;-8.76709;0;-6;13;-1.40625;0.0;-2.0654297;0;509;0;8.217773;0.0;0.0;0;;;;;;;0;10;64;5;68;0;215
02:06:06.863;-81;0;-8.76709;0.0;-8.76709;0;-6;0;-1.40625;0.0;-2.0654297;0;506;1;8.217773;0.0;0.0;0;;;;;;;0;9;63;5;68;1;235
02:06:06.912;-82;8;-8.76709;0.0;-8.76709;0;-6;-11;-1.40625;0.0;-2.0654297;0;506;0;8.217773;0.0;0.0;0;;;;;;;0;10;62;5;66;1;217
02:06:06.967;-79;-1;-8.76709;0.0;-8.76709;0;-5;-2;-1.40625;0.0;-2.0654297;0;505;0;8.217773;0.0;0.0;0;;;;;;;0;9;61;5;65;1;208
02:06:07.18;-81;-2;-8.76709;0.0;-8.76709;0;-7;6;-1.40625;0.0;-2.0654297;0;509;-1;8.217773;0.0;0.0;0;;;;;;;0;6;60;4;64;1;202
02:06:07.72;-78;0;-8.76709;0.0;-8.76709;0;-6;2;-1.40625;0.0;-2.0654297;0;512;0;8.217773;0.0;0.0;0;;;;;;;0;5;59;3;62;1;195
02:06:07.120;-81;6;-8.76709;0.0;-8.76709;0;-7;-9;-1.40625;0.0;-2.043457;0;509;-1;8.217773;0.0;0.0;0;;;;;;;0;4;59;2;62;1;201
02:06:07.178;-78;-3;-8.76709;0.0;-8.76709;0;-6;3;-1.40625;0.0;-2.0654297;0;510;1;8.217773;0.0;0.0;0;;;;;;;0;4;60;2;61;0;193
02:06:07.226;-82;4;-8.76709;0.0;-8.76709;0;-6;-4;-1.40625;0.0;-2.0654297;0;505;-2;8.217773;0.0;0.0;0;;;;;;;0;3;59;2;61;1;210
02:06:07.273;-77;-11;-8.76709;0.0;-8.76709;0;-4;15;-1.40625;0.0;-2.0654297;0;507;0;8.217773;0.0;0.0;0;;;;;;;0;2;59;2;73;1;202
02:06:07.328;-80;-6;-8.76709;0.0;-8.76709;0;-6;11;-1.40625;0.0;-2.0654297;0;504;0;8.217773;0.0;0.0;0;;;;;;;0;11;58;6;71;1;201
02:06:07.377;-83;0;-8.76709;0.0;-8.76709;0;-6;0;-1.40625;0.0;-2.0654297;0;507;1;8.217773;0.0;0.0;0;;;;;;;0;7;58;3;70;0;204
02:06:07.424;-79;8;-8.76709;0.0;-8.76709;0;-4;-8;-1.40625;0.0;-2.109375;0;512;-1;8.217773;0.0;0.0;0;;;;;;;0;5;57;2;71;1;198
02:06:07.480;-79;10;-8.76709;0.0;-8.503418;0;-5;-16;-1.40625;0.0;-2.0214844;0;504;-1;8.217773;0.0;0.0;0;;;;;;;0;5;56;3;69;1;201
02:06:07.529;-80;1;-8.7890625;0.0;-7.998047;0;-6;-6;-1.40625;0.0;-1.8896484;0;507;-1;8.217773;0.0;0.0;0;;;;;;;0;9;56;5;67;1;194
02:06:07.577;-82;5;-8.7890625;0.0;-7.6245117;0;-5;-8;-1.4282227;0.0;-1.7797852;0;508;0;8.217773;0.0;0.0;0;;;;;;;0;6;55;4;66;1;194
02:06:07.633;-80;11;-8.811035;0.0;-7.294922;0;-6;-19;-1.4282227;0.0;-1.6918945;0;506;-1;8.217773;0.0;0.0;0;;;;;;;0;4;55;3;65;1;192
02:06:07.682;-83;2;-8.898926;0.0;-7.272949;0;-5;-8;-1.472168;0.0;-1.7358398;0;508;-1;8.217773;0.0;0.0;0;;;;;;;0;8;55;4;65;2;188
02:06:07.729;-78;10;-8.920898;0.0;-7.294922;0;-5;-39;-1.472168;0.0;-1.7578125;0;509;18;8.217773;0.0;0.0;0;;;;;;;0;8;54;4;63;1;181
02:06:07.786;-93;-32;-9.008789;0.0;-7.404785;0;-9;52;-1.4941406;0.0;-1.7797852;0;507;0;8.327637;0.0;0.0;0;;;;;;;0;12;53;9;62;7;177
02:06:07.834;-80;-2;-8.986816;0.0;-7.426758;0;-6;4;-1.4941406;0.0;-1.7797852;0;505;0;8.327637;0.0;0.0;0;;;;;;;0;21;51;11;60;12;173
02:06:07.891;-83;-11;-8.964844;0.0;-7.470703;0;-7;11;-1.472168;0.0;-1.7797852;0;507;3;8.327637;0.0;0.0;0;;;;;;;0;8;50;4;59;5;173
02:06:07.939;-83;3;-8.920898;0.0;-7.426758;0;-8;-9;-1.4501953;0.0;-1.7358398;0;508;0;8.349609;0.0;0.0;0;;;;;;;0;5;50;3;60;2;163
02:06:07.987;-80;-2;-8.920898;0.0;-7.404785;0;-9;2;-1.4501953;0.0;-1.7358398;0;510;-1;8.349609;0.0;0.0;0;;;;;;;0;5;49;3;59;1;161
02:06:08.42;-81;0;-8.920898;0.0;-7.404785;0;-7;-1;-1.4501953;0.0;-1.7138672;0;507;-1;8.349609;0.0;0.0;0;;;;;;;0;3;48;2;60;0;176
02:06:08.91;-85;4;-8.920898;0.0;-7.404785;0;-4;-8;-1.4282227;0.0;-1.7138672;0;509;0;8.349609;0.0;0.0;0;;;;;;;0;3;58;2;76;1;182
02:06:08.140;-83;-2;-8.920898;0.0;-7.426758;0;-5;4;-1.4501953;0.0;-1.7138672;0;506;0;8.349609;0.0;0.0;0;;;;;;;0;7;58;3;79;1;183
02:06:08.188;-84;0;-8.942871;0.0;-7.426758;0;-5;0;-1.4501953;0.0;-1.7138672;0;506;0;8.349609;0.0;0.0;0;;;;;;;0;4;58;3;78;0;181
02:06:08.243;-83;-2;-8.964844;0.0;-7.4487305;0;-7;1;-1.4501953;0.0;-1.7358398;0;509;-3;8.349609;0.0;0.0;0;;;;;;;0;3;57;2;76;1;184
02:06:08.297;-83;4;-8.964844;0.0;-7.470703;0;-6;-9;-1.4501953;0.0;-1.7358398;0;506;0;8.349609;0.0;0.0;0;;;;;;;0;6;56;3;76;1;180
02:06:08.343;-80;1;-8.964844;0.0;-7.470703;0;-6;2;-1.4501953;0.0;-1.7358398;0;509;0;8.349609;0.0;0.0;0;;;;;;;0;4;58;2;76;0;170
02:06:08.398;-83;0;-8.964844;0.0;-7.470703;0;-7;-1;-1.472168;0.0;-1.7358398;0;507;0;8.349609;0.0;0.0;0;;;;;;;0;2;61;1;74;0;194
02:06:08.447;-80;0;-8.964844;0.0;-7.470703;0;-8;0;-1.4501953;0.0;-1.7358398;0;509;0;8.327637;0.0;0.0;0;;;;;;;0;2;63;1;78;1;191
02:06:08.503;-79;-4;-8.964844;0.0;-7.470703;0;-5;4;-1.4501953;0.0;-1.7358398;0;507;0;8.327637;0.0;0.0;0;;;;;;;0;2;65;1;83;1;193
02:06:08.549;-82;-4;-8.964844;0.0;-7.470703;0;-7;9;-1.4501953;0.0;-1.7138672;0;508;0;8.327637;0.0;0.0;0;;;;;;;0;2;64;1;81;1;197
02:06:08.598;-81;-1;-8.942871;0.0;-7.4487305;0;-8;2;-1.4501953;0.0;-1.7138672;0;507;0;8.327637;0.0;0.0;0;;;;;;;0;3;64;1;89;1;201
02:06:08.655;-82;2;-8.942871;0.0;-7.4487305;0;-6;-6;-1.4282227;0.0;-1.6918945;0;507;0;8.349609;0.0;0.0;0;;;;;;;0;3;66;2;93;0;207
02:06:08.702;-82;-6;-8.942871;0.0;-7.4487305;0;-5;13;-1.4501953;0.0;-1.7138672;0;508;0;8.349609;0.0;0.0;0;;;;;;;0;2;65;1;97;1;194
02:06:08.758;-83;-3;-8.942871;0.0;-7.4487305;0;-6;3;-1.4501953;0.0;-1.6918945;0;508;0;8.349609;0.0;0.0;0;;;;;;;0;5;67;3;94;1;192
02:06:08.806;-83;3;-8.964844;0.0;-7.470703;0;-7;-5;-1.4501953;0.0;-1.7138672;0;508;0;8.349609;0.0;0.0;0;;;;;;;0;3;65;2;93;0;194
02:06:08.855;-82;1;-8.964844;0.0;-7.470703;0;-6;0;-1.4501953;0.0;-1.7138672;0;510;0;8.349609;0.0;0.0;0;;;;;;;0;3;64;2;95;0;197
02:06:08.911;-82;1;-8.964844;0.0;-7.470703;0;-8;-1;-1.4501953;0.0;-1.7138672;0;505;0;8.349609;0.0;0.0;0;;;;;;;0;2;71;1;93;1;192
02:06:08.959;-83;-2;-8.964844;0.0;-7.470703;0;-4;7;-1.4501953;0.0;-1.7138672;0;508;0;8.349609;0.0;0.0;0;;;;;;;0;3;87;2;90;0;199
02:06:09.10;-81;-8;-8.964844;0.0;-7.470703;0;-6;14;-1.4501953;0.0;-1.7138672;0;510;0;8.349609;0.0;0.0;0;;;;;;;0;4;86;1;91;0;196
02:06:09.66;-81;-3;-8.964844;0.0;-7.470703;0;-7;7;-1.4501953;0.0;-1.7138672;0;509;-1;8.349609;0.0;0.0;0;;;;;;;0;7;83;4;89;1;200
02:06:09.114;-81;-2;-8.964844;0.0;-7.470703;0;-5;3;-1.4501953;0.0;-1.6918945;0;507;0;8.349609;0.0;0.0;0;;;;;;;0;3;83;2;90;1;201
02:06:09.169;-80;0;-8.964844;0.0;-7.470703;0;-7;2;-1.4501953;0.0;-1.6918945;0;506;0;8.349609;0.0;0.0;0;;;;;;;0;2;82;1;89;1;204
02:06:09.219;-83;2;-8.964844;0.0;-7.470703;0;-7;-2;-1.4501953;0.0;-1.6918945;0;509;0;8.349609;0.0;0.0;0;;;;;;;0;3;80;2;89;1;200
02:06:09.273;-82;3;-8.964844;0.0;-7.470703;0;-4;-4;-1.4501953;0.0;-1.6918945;0;508;1;8.349609;0.0;0.0;0;;;;;;;0;3;80;1;88;0;191
02:06:09.320;-83;0;-8.964844;0.0;-7.470703;0;-7;-2;-1.4501953;0.0;-1.6918945;0;509;0;8.349609;0.0;0.0;0;;;;;;;0;3;79;2;86;0;181
02:06:09.368;-84;-1;-8.964844;0.0;-7.470703;0;-7;1;-1.4501953;0.0;-1.6918945;0;509;-1;8.349609;0.0;0.0;0;;;;;;;0;1;76;1;86;0;193
02:06:09.424;-81;-2;-8.964844;0.0;-7.492676;0;-5;6;-1.4501953;0.0;-1.6918945;0;510;0;8.349609;0.0;0.0;0;;;;;;;0;2;77;2;95;0;189
02:06:09.472;-84;1;-8.986816;0.0;-7.492676;0;-7;-2;-1.4501953;0.0;-1.6918945;0;507;-1;8.349609;0.0;0.0;0;;;;;;;0;2;76;1;95;1;191
02:06:09.521;-83;2;-8.986816;0.0;-7.492676;0;-7;1;-1.4501953;0.0;-1.6918945;0;508;0;8.349609;0.0;0.0;0;;;;;;;0;1;76;1;103;0;209
02:06:09.578;-82;3;-8.986816;0.0;-7.470703;0;-8;-2;-1.4501953;0.0;-1.6918945;0;508;0;8.349609;0.0;0.0;0;;;;;;;0;2;82;1;99;1;208
02:06:09.625;-83;-2;-8.986816;0.0;-7.492676;0;-5;5;-1.4501953;0.0;-1.6918945;0;510;-1;8.349609;0.0;0.0;0;;;;;;;0;1;81;1;108;1;202
02:06:09.674;-82;-1;-8.964844;0.0;-7.470703;0;-8;2;-1.4282227;0.0;-1.6918945;0;506;0;8.349609;0.0;0.0;0;;;;;;;0;2;80;1;105;1;205
02:06:09.730;-81;-6;-8.964844;0.0;-7.470703;0;-6;9;-1.4282227;0.0;-1.6699219;0;509;-1;8.349609;0.0;0.0;0;;;;;;;0;2;78;1;104;1;205
02:06:09.778;-83;3;-8.964844;0.0;-7.470703;0;-8;-6;-1.4282227;0.0;-1.6699219;0;507;0;8.349609;0.0;0.0;0;;;;;;;0;4;83;2;115;1;210
02:06:09.827;-84;-3;-8.986816;0.0;-7.470703;0;-6;0;-1.4282227;0.0;-1.6699219;0;508;-1;8.349609;0.0;0.0;0;;;;;;;0;3;82;1;111;0;210
02:06:09.883;-82;1;-8.986816;0.0;-7.470703;0;-7;0;-1.4282227;0.0;-1.6699219;0;512;0;8.349609;0.0;0.0;0;;;;;;;0;1;87;1;109;1;205
02:06:09.932;-84;0;-8.986816;0.0;-7.492676;0;-4;-2;-1.4282227;0.0;-1.6699219;0;510;-2;8.349609;0.0;0.0;0;;;;;;;0;3;88;2;111;1;210
02:06:09.979;-83;5;-8.986816;0.0;-7.492676;0;-5;-7;-1.4282227;0.0;-1.6699219;0;510;-2;8.349609;0.0;0.0;0;;;;;;;0;2;89;1;107;0;206
02:06:10.36;-85;-2;-8.986816;0.0;-7.492676;0;-6;1;-1.4282227;0.0;-1.6699219;0;507;-1;8.349609;0.0;0.0;0;;;;;;;0;3;88;2;103;1;197
02:06:10.83;-83;1;-8.986816;0.0;-7.492676;0;-6;-2;-1.4282227;0.0;-1.6699219;0;506;0;8.349609;0.0;0.0;0;;;;;;;0;4;87;2;100;1;203
02:06:10.132;-84;-1;-8.986816;0.0;-7.492676;0;-6;5;-1.4282227;0.0;-1.6699219;0;508;-1;8.349609;0.0;0.0;0;;;;;;;0;3;85;2;97;1;208
02:06:10.188;-86;2;-8.986816;0.0;-7.492676;0;-8;-2;-1.4282227;0.0;-1.6699219;0;507;0;8.349609;0.0;0.0;0;;;;;;;0;3;84;1;95;1;198
02:06:10.236;-81;0;-8.986816;0.0;-7.492676;0;-5;3;-1.4282227;0.0;-1.6479492;0;507;2;8.349609;0.0;0.0;0;;;;;;;0;6;82;4;92;1;190
02:06:10.284;-83;4;-8.986816;0.0;-7.492676;0;-5;-2;-1.4282227;0.0;-1.6479492;0;510;1;8.349609;0.0;0.0;0;;;;;;;0;3;80;2;89;1;182
02:06:10.341;-84;0;-8.986816;0.0;-7.492676;0;-4;-3;-1.4282227;0.0;-1.6479492;0;509;-2;8.349609;0.0;0.0;0;;;;;;;0;5;78;3;86;1;183
02:06:10.389;-82;3;-8.986816;0.0;-7.492676;0;-6;-2;-1.4282227;0.0;-1.6479492;0;508;0;8.349609;0.0;0.0;0;;;;;;;0;2;76;2;84;1;194
02:06:10.445;-82;3;-8.986816;0.0;-7.492676;0;-5;-4;-1.4282227;0.0;-1.6479492;0;506;-1;8.349609;0.0;0.0;0;;;;;;;0;4;83;3;84;1;185
02:06:10.494;-83;0;-8.986816;0.0;-7.492676;0;-7;0;-1.4282227;0.0;-1.6479492;0;507;-1;8.349609;0.0;0.0;0;;;;;;;0;2;82;1;83;1;194
02:06:10.541;-82;1;-9.008789;0.0;-7.492676;0;-7;-2;-1.4282227;0.0;-1.6479492;0;508;0;8.349609;0.0;0.0;0;;;;;;;0;1;88;1;85;1;196
02:06:10.597;-81;-4;-9.008789;0.0;-7.492676;0;-8;5;-1.4282227;0.0;-1.6479492;0;506;-1;8.349609;0.0;0.0;0;;;;;;;0;2;86;1;90;1;193
02:06:10.645;-85;2;-8.986816;0.0;-7.492676;0;-9;-6;-1.4282227;0.0;-1.6479492;0;510;0;8.327637;0.0;0.0;0;;;;;;;0;3;84;1;87;0;186
02:06:10.695;-86;-2;-8.986816;0.0;-7.492676;0;-6;6;-1.4282227;0.0;-1.6479492;0;508;-1;8.327637;0.0;0.0;0;;;;;;;0;4;83;2;86;0;192
02:06:10.750;-79;-1;-8.986816;0.0;-7.492676;0;-6;1;-1.4282227;0.0;-1.6479492;0;509;-2;8.327637;0.0;0.0;0;;;;;;;0;3;82;2;84;0;207
02:06:10.798;-81;4;-8.986816;0.0;-7.492676;0;-7;-2;-1.4282227;0.0;-1.6259766;0;512;-1;8.327637;0.0;0.0;0;;;;;;;0;4;85;2;88;1;203
02:06:10.848;-86;0;-8.986816;0.0;-7.492676;0;-6;-4;-1.4282227;0.0;-1.6259766;0;507;0;8.327637;0.0;0.0;0;;;;;;;0;3;84;2;87;1;196
02:06:10.905;-81;0;-9.008789;0.0;-7.492676;0;-5;2;-1.4282227;0.0;-1.6259766;0;509;-1;8.327637;0.0;0.0;0;;;;;;;0;2;91;1;92;1;198
02:06:10.953;-83;0;-9.008789;0.0;-7.492676;0;-7;2;-1.4282227;0.0;-1.6259766;0;509;0;8.327637;0.0;0.0;0;;;;;;;0;3;94;1;91;1;201
02:06:11.09;-84;10;-9.008789;0.0;-7.492676;0;-8;-14;-1.4282227;0.0;-1.6259766;0;506;-1;8.349609;0.0;0.0;0;;;;;;;0;4;96;2;90;0;220
02:06:11.59;-85;-1;-9.008789;0.0;-7.5146484;0;-7;3;-1.4282227;0.0;-1.6259766;0;510;0;8.349609;0.0;0.0;0;;;;;;;0;7;93;4;88;1;211
02:06:11.107;-83;-2;-9.008789;0.0;-7.5146484;0;-5;5;-1.4282227;0.0;-1.6259766;0;508;0;8.327637;0.0;0.0;0;;;;;;;0;4;91;2;86;1;212
02:06:11.162;-83;-1;-9.008789;0.0;-7.5146484;0;-6;0;-1.4282227;0.0;-1.6259766;0;507;0;8.327637;0.0;0.0;0;;;;;;;0;4;90;2;86;0;216
02:06:11.211;-79;-4;-9.008789;0.0;-7.492676;0;-8;9;-1.4282227;0.0;-1.6259766;0;509;0;8.349609;0.0;0.0;0;;;;;;;0;4;89;2;85;0;225
02:06:11.263;-79;-3;-9.008789;0.0;-7.492676;0;-6;3;-1.4282227;0.0;-1.6040039;0;507;0;8.349609;0.0;0.0;0;;;;;;;0;4;87;2;84;0;229
02:06:11.314;-84;1;-9.008789;0.0;-7.492676;0;-5;0;-1.40625;0.0;-1.6040039;0;505;0;8.349609;0.0;0.0;0;;;;;;;0;2;85;1;87;0;216
02:06:11.361;-82;-1;-9.008789;0.0;-7.5146484;0;-6;6;-1.40625;0.0;-1.6040039;0;506;0;8.349609;0.0;0.0;0;;;;;;;0;1;91;1;95;1;228
02:06:11.417;-85;2;-9.008789;0.0;-7.5146484;0;-6;-4;-1.40625;0.0;-1.6040039;0;507;-1;8.349609;0.0;0.0;0;;;;;;;0;5;89;3;92;1;241
02:06:11.464;-82;0;-9.008789;0.0;-7.5146484;0;-7;0;-1.40625;0.0;-1.6040039;0;509;-1;8.349609;0.0;0.0;0;;;;;;;0;4;88;2;90;1;233
02:06:11.512;-84;0;-9.008789;0.0;-7.5146484;0;-7;1;-1.40625;0.0;-1.6040039;0;512;0;8.349609;0.0;0.0;0;;;;;;;0;1;87;1;89;1;221
02:06:11.570;-81;0;-9.008789;0.0;-7.5146484;0;-7;3;-1.4282227;0.0;-1.6040039;0;506;0;8.349609;0.0;0.0;0;;;;;;;0;2;84;2;86;1;218
02:06:11.617;-82;1;-9.008789;0.0;-7.5146484;0;-7;-1;-1.40625;0.0;-1.6040039;0;508;1;8.349609;0.0;0.0;0;;;;;;;0;1;102;1;85;1;215
02:06:11.667;-80;1;-9.008789;0.0;-7.5146484;0;-6;-5;-1.40625;0.0;-1.6040039;0;508;0;8.327637;0.0;0.0;0;;;;;;;0;3;99;1;84;1;204
02:06:11.723;-84;0;-9.008789;0.0;-7.5146484;0;-6;2;-1.40625;0.0;-1.6040039;0;508;0;8.349609;0.0;0.0;0;;;;;;;0;2;96;1;94;1;209
02:06:11.774;-82;0;-9.008789;0.0;-7.5146484;0;-6;-2;-1.40625;0.0;-1.6040039;0;505;1;8.349609;0.0;0.0;0;;;;;;;0;2;97;1;95;1;200
02:06:11.822;-82;6;-9.008789;0.0;-7.5146484;0;-8;-8;-1.40625;0.0;-1.6040039;0;509;2;8.349609;0.0;0.0;0;;;;;;;0;2;95;1;94;0;205
02:06:11.875;-82;0;-9.008789;0.0;-7.5146484;0;-7;-4;-1.40625;0.0;-1.6040039;0;509;1;8.327637;0.0;0.0;0;;;;;;;0;6;93;3;92;1;193
02:06:11.925;-83;0;-9.008789;0.0;-7.5146484;0;-5;-2;-1.40625;0.0;-1.5820312;0;507;0;8.327637;0.0;0.0;0;;;;;;;0;5;91;3;91;1;189
02:06:11.982;-81;0;-9.008789;0.0;-7.5146484;0;-7;0;-1.40625;0.0;-1.5820312;0;507;1;8.349609;0.0;0.0;0;;;;;;;0;3;89;1;89;1;184
02:06:12.30;-81;-2;-9.008789;0.0;-7.5146484;0;-5;2;-1.40625;0.0;-1.5820312;0;509;-2;8.349609;0.0;0.0;0;;;;;;;0;2;86;1;96;0;206
02:06:12.78;-83;0;-9.030762;0.0;-7.5146484;0;-7;-4;-1.40625;0.0;-1.5820312;0;511;0;8.327637;0.0;0.0;0;;;;;;;0;4;85;3;94;1;203
02:06:12.137;-80;3;-9.030762;0.0;-7.5146484;0;-4;-5;-1.40625;0.0;-1.5820312;0;506;0;8.349609;0.0;0.0;0;;;;;;;0;4;84;2;92;0;209
02:06:12.180;-84;2;-9.030762;0.0;-7.5146484;0;-7;0;-1.40625;0.0;-1.5820312;0;509;0;8.349609;0.0;0.0;0;;;;;;;0;3;82;1;89;0;218
02:06:12.236;-82;-2;-9.030762;0.0;-7.5146484;0;-8;6;-1.40625;0.0;-1.5820312;0;506;0;8.349609;0.0;0.0;0;;;;;;;0;4;81;2;89;0;224
02:06:12.284;-83;-1;-9.030762;0.0;-7.5146484;0;-6;4;-1.40625;0.0;-1.5820312;0;509;-1;8.349609;0.0;0.0;0;;;;;;;0;3;79;2;87;1;226
02:06:12.336;-82;-1;-9.030762;0.0;-7.5146484;0;-7;3;-1.40625;0.0;-1.5820312;0;510;0;8.327637;0.0;0.0;0;;;;;;;0;2;78;1;88;1;221
02:06:12.391;-84;-4;-9.030762;0.0;-7.5146484;0;-5;1;-1.40625;0.0;-1.5820312;0;510;-2;8.327637;0.0;0.0;0;;;;;;;0;2;77;1;95;1;230
02:06:12.440;-82;1;-9.030762;0.0;-7.5146484;0;-7;-4;-1.40625;0.0;-1.5820312;0;507;1;8.327637;0.0;0.0;0;;;;;;;0;2;77;2;92;1;223
02:06:12.498;-80;4;-9.030762;0.0;-7.5146484;0;-7;-9;-1.40625;0.0;-1.5600586;0;507;0;8.349609;0.0;0.0;0;;;;;;;0;2;76;1;90;0;218
02:06:12.544;-84;0;-9.030762;0.0;-7.5146484;0;-8;5;-1.40625;0.0;-1.5600586;0;506;1;8.327637;0.0;0.0;0;;;;;;;0;4;76;3;89;1;206
02:06:12.592;-82;0;-9.030762;0.0;-7.5146484;0;-7;2;-1.40625;0.0;-1.5600586;0;506;-1;8.327637;0.0;0.0;0;;;;;;;0;4;76;2;87;1;229
02:06:12.648;-83;0;-9.030762;0.0;-7.5146484;0;-6;2;-1.40625;0.0;-1.5600586;0;506;0;8.327637;0.0;0.0;0;;;;;;;0;2;74;1;91;1;219
02:06:12.698;-82;2;-9.030762;0.0;-7.5146484;0;-7;-7;-1.40625;0.0;-1.5600586;0;508;0;8.327637;0.0;0.0;0;;;;;;;0;2;75;1;103;1;221
02:06:12.753;-82;-1;-9.030762;0.0;-7.5146484;0;-5;2;-1.40625;0.0;-1.5600586;0;511;2;8.327637;0.0;0.0;0;;;;;;;0;3;75;2;100;1;225
02:06:12.801;-82;3;-9.030762;0.0;-7.5146484;0;-8;-3;-1.40625;0.0;-1.5600586;0;506;0;8.327637;0.0;0.0;0;;;;;;;0;3;75;2;98;1;232
02:06:12.859;-81;-3;-9.030762;0.0;-7.5146484;0;-6;2;-1.3842773;0.0;-1.5600586;0;504;-1;8.327637;0.0;0.0;0;;;;;;;0;4;76;2;96;1;235
02:06:12.906;-83;0;-9.030762;0.0;-7.5146484;0;-8;-4;-1.3842773;0.0;-1.5600586;0;506;0;8.327637;0.0;0.0;0;;;;;;;0;3;76;1;96;1;223
02:06:12.961;-82;-3;-9.030762;0.0;-7.5146484;0;-5;4;-1.3842773;0.0;-1.5600586;0;505;-3;8.327637;0.0;0.0;0;;;;;;;0;3;74;2;98;1;224
02:06:13.11;-83;0;-9.030762;0.0;-7.5146484;0;-5;-4;-1.3842773;0.0;-1.5600586;0;509;-1;8.327637;0.0;0.0;0;;;;;;;0;4;75;2;101;0;215
02:06:13.59;-82;0;-9.030762;0.0;-7.5146484;0;-8;0;-1.3842773;0.0;-1.5380859;0;507;-2;8.327637;0.0;0.0;0;;;;;;;0;2;78;1;100;0;217
02:06:13.114;-83;0;-9.030762;0.0;-7.536621;0;-7;0;-1.3842773;0.0;-1.5380859;0;507;0;8.327637;0.0;0.0;0;;;;;;;0;1;89;1;120;1;216
02:06:13.160;-82;0;-9.030762;0.0;-7.536621;0;-7;0;-1.3842773;0.0;-1.5380859;0;509;0;8.327637;0.0;0.0;0;;;;;;;0;1;95;0;132;0;226
02:06:13.216;-79;1;-9.052734;0.0;-7.536621;0;-7;0;-1.3842773;0.0;-1.5380859;0;505;0;8.327637;0.0;0.0;0;;;;;;;0;2;93;1;127;1;215
02:06:13.267;-84;-1;-9.052734;0.0;-7.536621;0;-5;-1;-1.3842773;0.0;-1.5380859;0;508;-1;8.327637;0.0;0.0;0;;;;;;;0;1;91;1;125;1;213
02:06:13.315;-83;3;-9.052734;0.0;-7.536621;0;-4;-4;-1.3842773;0.0;-1.5380859;0;510;0;8.327637;0.0;0.0;0;;;;;;;0;1;102;0;129;0;217
02:06:13.372;-83;0;-9.052734;0.0;-7.536621;0;-6;0;-1.3842773;0.0;-1.5380859;0;506;0;8.327637;0.0;0.0;0;;;;;;;0;4;103;2;132;1;214
02:06:13.420;-81;-1;-9.052734;0.0;-7.536621;0;-7;1;-1.3842773;0.0;-1.5380859;0;508;3;8.327637;0.0;0.0;0;;;;;;;0;3;100;1;127;0;225
02:06:13.465;-83;-1;-9.030762;0.0;-7.536621;0;-6;2;-1.3842773;0.0;-1.5380859;0;507;0;8.327637;0.0;0.0;0;;;;;;;0;2;102;1;128;1;220
02:06:13.522;-82;0;-9.052734;0.0;-7.536621;0;-6;1;-1.3842773;0.0;-1.5380859;0;505;-1;8.327637;0.0;0.0;0;;;;;;;0;1;105;1;127;0;207
02:06:13.573;-80;-2;-9.052734;0.0;-7.536621;0;-7;3;-1.3842773;0.0;-1.5380859;0;509;0;8.327637;0.0;0.0;0;;;;;;;0;1;127;1;141;0;203
02:06:13.621;-81;0;-9.052734;0.0;-7.536621;0;-6;-3;-1.3842773;0.0;-1.5380859;0;508;-1;8.327637;0.0;0.0;0;;;;;;;0;1;123;0;141;1;212
02:06:13.677;-80;0;-9.052734;0.0;-7.536621;0;-5;-1;-1.3842773;0.0;-1.5380859;0;508;-1;8.327637;0.0;0.0;0;;;;;;;0;1;121;1;148;0;205
02:06:13.724;-83;-1;-9.052734;0.0;-7.536621;0;-7;3;-1.3842773;0.0;-1.5380859;0;509;0;8.327637;0.0;0.0;0;;;;;;;0;1;122;1;159;0;201
02:06:13.782;-82;-1;-9.052734;0.0;-7.536621;0;-5;-2;-1.3842773;0.0;-1.5380859;0;506;0;8.327637;0.0;0.0;0;;;;;;;0;1;119;1;166;0;197
02:06:13.827;-82;0;-9.052734;0.0;-7.536621;0;-5;-2;-1.3842773;0.0;-1.5380859;0;508;-1;8.327637;0.0;0.0;0;;;;;;;0;2;121;1;161;1;206
02:06:13.876;-83;-1;-9.052734;0.0;-7.536621;0;-7;1;-1.3842773;0.0;-1.5380859;0;510;0;8.327637;0.0;0.0;0;;;;;;;0;1;120;0;157;0;203
02:06:13.932;-83;-2;-9.052734;0.0;-7.536621;0;-7;-2;-1.3842773;0.0;-1.5161133;0;507;0;8.327637;0.0;0.0;0;;;;;;;0;1;123;0;164;0;199
02:06:13.980;-81;0;-9.052734;0.0;-7.536621;0;-6;0;-1.3842773;0.0;-1.5161133;0;508;-1;8.327637;0.0;0.0;0;;;;;;;0;1;121;1;178;1;211
02:06:14.31;-83;1;-9.052734;0.0;-7.536621;0;-6;-1;-1.3842773;0.0;-1.5161133;0;505;0;8.327637;0.0;0.0;0;;;;;;;0;1;122;0;182;0;207
02:06:14.87;-81;0;-9.052734;0.0;-7.536621;0;-5;1;-1.3842773;0.0;-1.5161133;0;507;0;8.327637;0.0;0.0;0;;;;;;;0;1;129;0;186;1;234
02:06:14.138;-81;-1;-9.052734;0.0;-7.536621;0;-5;2;-1.3842773;0.0;-1.5161133;0;507;-2;8.327637;0.0;0.0;0;;;;;;;0;1;133;1;196;1;225
02:06:14.192;-84;1;-9.052734;0.0;-7.536621;0;-5;0;-1.3842773;0.0;-1.5161133;0;508;0;8.327637;0.0;0.0;0;;;;;;;0;1;127;1;195;0;224
02:06:14.238;-83;2;-9.052734;0.0;-7.536621;0;-5;0;-1.3842773;0.0;-1.5161133;0;509;0;8.327637;0.0;0.0;0;;;;;;;0;1;125;1;204;1;226
02:06:14.287;-81;0;-9.052734;0.0;-7.5585938;0;-6;0;-1.3842773;0.0;-1.5161133;0;512;0;8.327637;0.0;0.0;0;;;;;;;0;2;122;1;200;0;218
02:06:14.343;-83;0;-9.052734;0.0;-7.536621;0;-6;0;-1.3842773;0.0;-1.4941406;0;506;0;8.327637;0.0;0.0;0;;;;;;;0;1;120;1;200;1;242
02:06:14.391;-82;0;-9.052734;0.0;-7.536621;0;-6;-1;-1.3623047;0.0;-1.4941406;0;510;2;8.327637;0.0;0.0;0;;;;;;;0;1;116;1;189;0;250
02:06:14.448;-84;1;-9.052734;0.0;-7.536621;0;-6;-1;-1.3623047;0.0;-1.4941406;0;508;0;8.327637;0.0;0.0;0;;;;;;;0;2;120;1;181;0;241
02:06:14.498;-81;1;-9.052734;0.0;-7.536621;0;-6;-3;-1.3623047;0.0;-1.4941406;0;507;0;8.327637;0.0;0.0;0;;;;;;;0;2;113;1;167;0;234
02:06:14.544;-82;2;-9.052734;0.0;-7.536621;0;-5;-3;-1.3623047;0.0;-1.4941406;0;512;0;8.327637;0.0;0.0;0;;;;;;;0;2;115;1;164;1;222
02:06:14.600;-82;-5;-9.052734;0.0;-7.5585938;0;-6;2;-1.3623047;0.0;-1.4941406;0;511;0;8.327637;0.0;0.0;0;;;;;;;0;3;110;2;153;1;216
02:06:14.648;-79;-2;-9.052734;0.0;-7.5585938;0;-6;5;-1.3623047;0.0;-1.4941406;0;509;0;8.327637;0.0;0.0;0;;;;;;;0;3;106;1;144;0;222
02:06:14.705;-84;-1;-9.052734;0.0;-7.5585938;0;-4;1;-1.3623047;0.0;-1.4941406;0;511;0;8.327637;0.0;0.0;0;;;;;;;0;2;103;1;137;1;227
02:06:14.753;-83;0;-9.052734;0.0;-7.5585938;0;-5;2;-1.3623047;0.0;-1.4941406;0;507;0;8.327637;0.0;0.0;0;;;;;;;0;2;100;1;130;1;213
02:06:14.810;-82;0;-9.074707;0.0;-7.5585938;0;-6;-1;-1.3623047;0.0;-1.4941406;0;506;0;8.327637;0.0;0.0;0;;;;;;;0;2;108;1;144;0;199
02:06:14.859;-84;0;-9.052734;0.0;-7.5585938;0;-8;-1;-1.3623047;0.0;-1.472168;0;508;0;8.327637;0.0;0.0;0;;;;;;;0;3;103;2;137;1;218
02:06:14.905;-84;-8;-9.074707;0.0;-7.5585938;0;-8;13;-1.3623047;0.0;-1.472168;0;509;0;8.327637;0.0;0.0;0;;;;;;;0;6;98;3;129;1;229
02:06:14.961;-81;1;-9.074707;0.0;-7.5585938;0;-5;-2;-1.3623047;0.0;-1.472168;0;512;0;8.327637;0.0;0.0;0;;;;;;;0;8;96;5;123;0;216
02:06:15.11;-83;1;-9.074707;0.0;-7.5585938;0;-5;-3;-1.3623047;0.0;-1.472168;0;506;0;8.327637;0.0;0.0;0;;;;;;;0;5;93;3;117;1;215
02:06:15.57;-82;1;-9.074707;0.0;-7.5585938;0;-6;-3;-1.3623047;0.0;-1.472168;0;510;-2;8.327637;0.0;0.0;0;;;;;;;0;2;90;1;113;0;233
02:06:15.112;-80;-4;-9.074707;0.0;-7.5585938;0;-8;4;-1.3623047;0.0;-1.472168;0;506;1;8.327637;0.0;0.0;0;;;;;;;0;5;90;3;110;1;231
02:06:15.163;-81;3;-9.074707;0.0;-7.5585938;0;-8;-10;-1.3623047;0.0;-1.472168;0;506;1;8.327637;0.0;0.0;0;;;;;;;0;3;88;2;107;0;226
02:06:15.220;-84;9;-9.074707;0.0;-7.5585938;0;-5;-16;-1.3623047;0.0;-1.472168;0;506;1;8.327637;0.0;0.0;0;;;;;;;0;3;87;1;104;1;219
02:06:15.267;-82;-8;-9.074707;0.0;-7.5585938;0;-6;12;-1.3623047;0.0;-1.472168;0;505;-2;8.327637;0.0;0.0;0;;;;;;;0;7;85;3;100;1;207
02:06:15.315;-84;4;-9.074707;0.0;-7.5585938;0;-5;-6;-1.3623047;0.0;-1.4501953;0;507;1;8.327637;0.0;0.0;0;;;;;;;0;5;84;3;97;0;195
02:06:15.376;-83;-6;-9.074707;0.0;-7.5585938;0;-3;5;-1.3623047;0.0;-1.4501953;0;507;0;8.327637;0.0;0.0;0;;;;;;;0;7;83;4;94;1;200
02:06:15.417;-86;0;-9.074707;0.0;-7.5585938;0;-6;-3;-1.3623047;0.0;-1.4501953;0;509;0;8.327637;0.0;0.0;0;;;;;;;0;4;82;3;93;1;202
02:06:15.466;-83;1;-9.074707;0.0;-7.5585938;0;-6;0;-1.3623047;0.0;-1.4501953;0;507;1;8.327637;0.0;0.0;0;;;;;;;0;2;80;1;96;0;193
02:06:15.522;-84;-6;-9.074707;0.0;-7.5585938;0;-3;7;-1.3623047;0.0;-1.4501953;0;509;-1;8.327637;0.0;0.0;0;;;;;;;0;6;79;3;95;1;201
02:06:15.570;-80;-5;-9.074707;0.0;-7.5585938;0;-5;5;-1.340332;0.0;-1.4501953;0;508;-2;8.327637;0.0;0.0;0;;;;;;;0;4;78;2;95;1;193
02:06:15.618;-81;4;-9.074707;0.0;-7.5585938;0;-7;-8;-1.340332;0.0;-1.4501953;0;505;-1;8.327637;0.0;0.0;0;;;;;;;0;4;78;2;92;1;197
02:06:15.677;-82;1;-9.074707;0.0;-7.5585938;0;-9;-2;-1.340332;0.0;-1.4282227;0;507;0;8.327637;0.0;0.0;0;;;;;;;0;5;78;2;92;1;189
02:06:15.724;-81;-4;-9.074707;0.0;-7.5585938;0;-3;6;-1.340332;0.0;-1.4282227;0;510;0;8.327637;0.0;0.0;0;;;;;;;0;2;76;1;92;0;190
02:06:15.782;-84;1;-9.074707;0.0;-7.5585938;0;-7;0;-1.340332;0.0;-1.4282227;0;507;1;8.327637;0.0;0.0;0;;;;;;;0;3;77;2;91;1;214
02:06:15.830;-83;6;-9.074707;0.0;-7.5585938;0;-6;-4;-1.340332;0.0;-1.4282227;0;504;1;8.327637;0.0;0.0;0;;;;;;;0;2;77;1;91;1;225
02:06:15.883;-83;-2;-9.074707;0.0;-7.5585938;0;-5;4;-1.340332;0.0;-1.4282227;0;507;0;8.327637;0.0;0.0;0;;;;;;;0;3;77;1;89;1;213
02:06:15.936;-84;2;-9.074707;0.0;-7.5585938;0;-7;-1;-1.340332;0.0;-1.4282227;0;507;-2;8.327637;0.0;0.0;0;;;;;;;0;6;77;3;88;1;203
02:06:15.982;-83;-4;-9.074707;0.0;-7.5585938;0;-7;6;-1.340332;0.0;-1.4282227;0;504;0;8.327637;0.0;0.0;0;;;;;;;0;3;77;2;90;0;205
02:06:16.40;-83;5;-9.074707;0.0;-7.5585938;0;-5;-3;-1.340332;0.0;-1.4282227;0;505;1;8.327637;0.0;0.0;0;;;;;;;0;5;79;2;88;1;213
02:06:16.87;-83;-4;-9.074707;0.0;-7.5585938;0;-5;12;-1.340332;0.0;-1.4282227;0;503;-4;8.327637;0.0;0.0;0;;;;;;;0;5;78;3;87;1;205
02:06:16.143;-83;0;-9.074707;0.0;-7.5585938;0;-7;2;-1.340332;0.0;-1.4282227;0;509;1;8.327637;0.0;0.0;0;;;;;;;0;8;76;5;86;1;194
02:06:16.193;-81;3;-9.074707;0.0;-7.5585938;0;-5;-4;-1.340332;0.0;-1.40625;0;504;1;8.327637;0.0;0.0;0;;;;;;;0;5;78;3;86;1;186
02:06:16.239;-84;6;-9.074707;0.0;-7.5585938;0;-7;-5;-1.340332;0.0;-1.40625;0;510;0;8.327637;0.0;0.0;0;;;;;;;0;4;76;2;84;1;181
02:06:16.297;-85;5;-9.074707;0.0;-7.5585938;0;-8;-6;-1.340332;0.0;-1.40625;0;505;-1;8.305664;0.0;0.0;0;;;;;;;0;4;77;3;84;1;190
02:06:16.344;-81;3;-9.074707;0.0;-7.5805664;0;-6;-5;-1.340332;0.0;-1.40625;0;505;-2;8.305664;0.0;0.0;0;;;;;;;0;6;77;2;84;1;197
02:06:16.398;-85;-1;-9.074707;0.0;-7.5805664;0;-5;4;-1.340332;0.0;-1.40625;0;507;3;8.305664;0.0;0.0;0;;;;;;;0;4;77;2;83;1;197
02:06:16.447;-82;0;-9.074707;0.0;-7.5805664;0;-6;-3;-1.340332;0.0;-1.40625;0;507;0;8.305664;0.0;0.0;0;;;;;;;0;2;79;2;86;1;192
02:06:16.495;-81;-2;-9.074707;0.0;-7.5805664;0;-5;3;-1.340332;0.0;-1.40625;0;508;0;8.305664;0.0;0.0;0;;;;;;;0;1;87;1;90;0;182
02:06:16.552;-85;1;-9.074707;0.0;-7.5805664;0;-7;0;-1.340332;0.0;-1.40625;0;506;1;8.305664;0.0;0.0;0;;;;;;;0;2;92;1;103;0;179
02:06:16.601;-81;0;-9.074707;0.0;-7.5805664;0;-8;2;-1.3183594;0.0;-1.40625;0;507;-3;8.305664;0.0;0.0;0;;;;;;;0;4;90;2;101;0;200
02:06:16.659;-83;6;-9.074707;0.0;-7.5805664;0;-7;-8;-1.3183594;0.0;-1.3842773;0;503;0;8.305664;0.0;0.0;0;;;;;;;0;3;89;2;99;0;187
02:06:16.705;-82;4;-9.074707;0.0;-7.5805664;0;-5;-4;-1.3183594;0.0;-1.3842773;0;509;1;8.305664;0.0;0.0;0;;;;;;;0;8;86;5;96;1;188
02:06:16.753;-81;-2;-9.074707;0.0;-7.5805664;0;-7;6;-1.3183594;0.0;-1.3842773;0;510;0;8.305664;0.0;0.0;0;;;;;;;0;12;85;7;94;1;175
02:06:16.810;-81;-6;-9.074707;0.0;-7.5805664;0;-5;8;-1.3183594;0.0;-1.3842773;0;509;0;8.305664;0.0;0.0;0;;;;;;;0;7;83;4;92;1;169
02:06:16.859;-83;1;-9.074707;0.0;-7.5805664;0;-5;0;-1.3183594;0.0;-1.3842773;0;509;0;8.305664;0.0;0.0;0;;;;;;;0;6;83;3;90;1;162
02:06:16.914;-85;15;-9.074707;0.0;-7.5805664;0;-6;-29;-1.3183594;0.0;-1.3842773;0;506;2;8.305664;0.0;0.0;0;;;;;;;0;6;80;4;87;1;168
02:06:16.962;-80;1;-9.09668;0.0;-7.5805664;0;-5;2;-1.3183594;0.0;-1.3842773;0;506;0;8.305664;0.0;0.0;0;;;;;;;0;13;79;7;85;1;160
02:06:17.10;-82;-11;-9.074707;0.0;-7.5805664;0;-3;19;-1.3183594;0.0;-1.3842773;0;509;0;8.305664;0.0;0.0;0;;;;;;;0;8;78;4;84;1;151
02:06:17.66;-81;10;-9.074707;0.0;-7.5805664;0;-5;-15;-1.3183594;0.0;-1.3842773;0;503;1;8.305664;0.0;0.0;0;;;;;;;0;10;77;6;84;1;144
02:06:17.115;-84;0;-9.074707;0.0;-7.5805664;0;-4;3;-1.3183594;0.0;-1.3623047;0;511;0;8.305664;0.0;0.0;0;;;;;;;0;9;77;5;83;1;136
02:06:17.171;-81;1;-9.074707;0.0;-7.5805664;0;-7;-1;-1.3183594;0.0;-1.3623047;0;507;0;8.305664;0.0;0.0;0;;;;;;;0;4;76;2;82;0;148
02:06:17.221;-82;0;-9.074707;0.0;-7.5805664;0;-7;0;-1.3183594;0.0;-1.3623047;0;508;-1;8.305664;0.0;0.0;0;;;;;;;0;5;75;3;81;1;148
02:06:17.276;-83;3;-9.074707;0.0;-7.5805664;0;-6;-1;-1.3183594;0.0;-1.3623047;0;512;0;8.305664;0.0;0.0;0;;;;;;;0;2;75;1;89;0;147
02:06:17.324;-83;-2;-9.074707;0.0;-7.5805664;0;-5;5;-1.3183594;0.0;-1.3623047;0;507;1;8.305664;0.0;0.0;0;;;;;;;0;4;73;2;85;1;173
02:06:17.375;-84;0;-9.09668;0.0;-7.5805664;0;-8;-1;-1.3183594;0.0;-1.3623047;0;507;-1;8.305664;0.0;0.0;0;;;;;;;0;3;74;1;84;1;165
02:06:17.426;-81;-2;-9.09668;0.0;-7.5805664;0;-8;7;-1.3183594;0.0;-1.340332;0;504;-1;8.305664;0.0;0.0;0;;;;;;;0;1;72;1;92;1;171
02:06:17.474;-84;5;-9.074707;0.0;-7.5805664;0;-4;-9;-1.2963867;0.0;-1.340332;0;508;0;8.305664;0.0;0.0;0;;;;;;;0;2;72;1;103;0;189
02:06:17.524;-81;0;-9.09668;0.0;-7.5805664;0;-7;3;-1.3183594;0.0;-1.340332;0;507;1;8.305664;0.0;0.0;0;;;;;;;0;4;72;2;100;0;181
02:06:17.581;-83;-1;-9.09668;0.0;-7.5805664;0;-7;1;-1.2963867;0.0;-1.340332;0;510;-2;8.305664;0.0;0.0;0;;;;;;;0;2;75;1;100;1;185
02:06:17.628;-82;0;-9.074707;0.0;-7.5805664;0;-6;0;-1.2963867;0.0;-1.340332;0;510;-1;8.305664;0.0;0.0;0;;;;;;;0;2;86;1;103;1;175
02:06:17.682;-84;-5;-9.09668;0.0;-7.5805664;0;-5;10;-1.2963867;0.0;-1.340332;0;508;-2;8.305664;0.0;0.0;0;;;;;;;0;5;85;3;104;1;167
02:06:17.731;-84;2;-9.09668;0.0;-7.5805664;0;-7;-3;-1.2963867;0.0;-1.340332;0;510;-1;8.305664;0.0;0.0;0;;;;;;;0;6;85;3;101;1;165
02:06:17.779;-83;0;-9.074707;0.0;-7.5805664;0;-8;0;-1.2963867;0.0;-1.3183594;0;507;-2;8.305664;0.0;0.0;0;;;;;;;0;4;83;2;99;0;164
02:06:17.836;-81;-1;-9.09668;0.0;-7.5805664;0;-8;0;-1.2963867;0.0;-1.3183594;0;506;0;8.305664;0.0;0.0;0;;;;;;;0;3;82;2;95;0;177
02:06:17.885;-82;1;-9.09668;0.0;-7.5805664;0;-7;-4;-1.2963867;0.0;-1.3183594;0;508;1;8.305664;0.0;0.0;0;;;;;;;0;4;81;2;95;1;191
02:06:17.938;-82;-1;-9.09668;0.0;-7.5805664;0;-5;-3;-1.2963867;0.0;-1.3183594;0;507;0;8.305664;0.0;0.0;0;;;;;;;0;3;80;2;93;1;181
02:06:17.991;-81;0;-9.09668;0.0;-7.5805664;0;-8;2;-1.2963867;0.0;-1.3183594;0;513;0;8.305664;0.0;0.0;0;;;;;;;0;2;81;1;91;1;181
02:06:18.40;-82;-2;-9.09668;0.0;-7.5805664;0;-7;3;-1.2963867;0.0;-1.3183594;0;510;1;8.305664;0.0;0.0;0;;;;;;;0;1;79;1;91;1;185
02:06:18.87;-80;-3;-9.09668;0.0;-7.5805664;0;-5;3;-1.2963867;0.0;-1.2963867;0;506;0;8.305664;0.0;0.0;0;;;;;;;0;1;78;1;93;1;181
02:06:18.143;-83;1;-9.09668;0.0;-7.5805664;0;-7;0;-1.2963867;0.0;-1.2963867;0;508;-1;8.305664;0.0;0.0;0;;;;;;;0;2;80;1;90;1;182
02:06:18.191;-84;1;-9.09668;0.0;-7.5805664;0;-8;-2;-1.2963867;0.0;-1.2963867;0;506;0;8.305664;0.0;0.0;0;;;;;;;0;3;79;2;89;0;172
02:06:18.247;-83;3;-9.09668;0.0;-7.5805664;0;-4;-4;-1.2744141;0.0;-1.2963867;0;507;0;8.305664;0.0;0.0;0;;;;;;;0;2;79;1;87;0;172
02:06:18.297;-85;12;-9.09668;0.0;-7.5805664;0;-6;-22;-1.2963867;0.0;-1.2963867;0;510;1;8.305664;0.0;0.0;0;;;;;;;0;4;77;2;84;1;163
02:06:18.353;-84;10;-9.09668;0.0;-7.5805664;0;-6;-13;-1.2963867;0.0;-1.2963867;0;505;0;8.305664;0.0;0.0;0;;;;;;;0;14;77;8;84;1;156
02:06:18.401;-81;-9;-9.09668;0.0;-7.5805664;0;-6;18;-1.2963867;0.0;-1.2963867;0;508;0;8.305664;0.0;0.0;0;;;;;;;0;12;76;7;83;1;146
02:06:18.448;-83;4;-9.09668;0.0;-7.5805664;0;-8;-8;-1.2963867;0.0;-1.2963867;0;506;0;8.305664;0.0;0.0;0;;;;;;;0;10;76;6;82;1;143
02:06:18.504;-81;1;-9.09668;0.0;-7.5805664;0;-5;-4;-1.2744141;0.0;-1.2963867;0;507;0;8.305664;0.0;0.0;0;;;;;;;0;4;75;2;81;0;152
02:06:18.552;-84;1;-9.09668;0.0;-7.5805664;0;-5;2;-1.2744141;0.0;-1.2963867;0;507;0;8.305664;0.0;0.0;0;;;;;;;0;4;75;2;79;1;161
02:06:18.610;-82;5;-9.09668;0.0;-7.5805664;0;-6;-11;-1.2744141;0.0;-1.2744141;0;505;0;8.305664;0.0;0.0;0;;;;;;;0;7;74;3;79;0;179
02:06:18.658;-82;-2;-9.09668;0.0;-7.5805664;0;-7;7;-1.2744141;0.0;-1.2744141;0;508;-1;8.305664;0.0;0.0;0;;;;;;;0;6;74;3;78;1;169
02:06:18.705;-82;0;-9.09668;0.0;-7.5805664;0;-7;3;-1.2744141;0.0;-1.2744141;0;504;0;8.305664;0.0;0.0;0;;;;;;;0;5;74;2;83;1;167
02:06:18.761;-83;-2;-9.09668;0.0;-7.5805664;0;-7;2;-1.2744141;0.0;-1.2744141;0;509;0;8.305664;0.0;0.0;0;;;;;;;0;2;74;1;89;0;187
02:06:18.810;-81;-2;-9.09668;0.0;-7.5805664;0;-8;-1;-1.2744141;0.0;-1.2744141;0;506;0;8.305664;0.0;0.0;0;;;;;;;0;2;74;1;93;0;197
02:06:18.866;-83;6;-9.09668;0.0;-7.5805664;0;-5;-6;-1.2744141;0.0;-1.2744141;0;506;0;8.305664;0.0;0.0;0;;;;;;;0;2;82;2;96;0;185
02:06:18.914;-81;-12;-9.09668;0.0;-7.5805664;0;-6;26;-1.2744141;0.0;-1.2744141;0;510;-1;8.305664;0.0;0.0;0;;;;;;;0;3;80;2;95;1;195
02:06:18.963;-82;2;-9.09668;0.0;-7.5805664;0;-6;-9;-1.2744141;0.0;-1.2524414;0;506;1;8.305664;0.0;0.0;0;;;;;;;0;12;80;7;93;1;188
02:06:19.20;-84;2;-9.09668;0.0;-7.5805664;0;-6;-1;-1.2744141;0.0;-1.2524414;0;506;2;8.305664;0.0;0.0;0;;;;;;;0;6;79;4;91;1;177
02:06:19.67;-80;-1;-9.09668;0.0;-7.5805664;0;-7;5;-1.2744141;0.0;-1.2524414;0;507;-2;8.305664;0.0;0.0;0;;;;;;;0;5;77;3;90;0;166
02:06:19.123;-83;9;-9.09668;0.0;-7.5805664;0;-6;-12;-1.2744141;0.0;-1.2524414;0;508;0;8.305664;0.0;0.0;0;;;;;;;0;4;77;3;88;1;159
02:06:19.172;-84;-1;-9.09668;0.0;-7.5805664;0;-5;0;-1.2744141;0.0;-1.2524414;0;505;1;8.305664;0.0;0.0;0;;;;;;;0;5;77;3;86;1;191
02:06:19.221;-79;-1;-9.09668;0.0;-7.5805664;0;-7;-4;-1.2744141;0.0;-1.2524414;0;508;-1;8.305664;0.0;0.0;0;;;;;;;0;3;77;2;86;1;190
02:06:19.276;-81;-3;-9.09668;0.0;-7.5805664;0;-6;6;-1.2744141;0.0;-1.2524414;0;512;-2;8.305664;0.0;0.0;0;;;;;;;0;3;77;1;87;1;199
02:06:19.323;-82;3;-9.09668;0.0;-7.5805664;0;-6;-1;-1.2524414;0.0;-1.2524414;0;507;2;8.305664;0.0;0.0;0;;;;;;;0;4;76;2;86;0;190
02:06:19.381;-82;-6;-9.09668;0.0;-7.5805664;0;-7;16;-1.2524414;0.0;-1.2524414;0;504;-1;8.305664;0.0;0.0;0;;;;;;;0;3;76;2;85;0;181
02:06:19.429;-82;6;-9.09668;0.0;-7.5805664;0;-7;-9;-1.2524414;0.0;-1.2524414;0;506;0;8.305664;0.0;0.0;0;;;;;;;0;8;75;5;83;1;202
02:06:19.476;-84;10;-9.09668;0.0;-7.5805664;0;-5;-19;-1.2524414;0.0;-1.2524414;0;507;0;8.305664;0.0;0.0;0;;;;;;;0;5;75;3;82;0;192
02:06:19.534;-80;6;-9.09668;0.0;-7.5805664;0;-3;-16;-1.2524414;0.0;-1.2304688;0;507;0;8.305664;0.0;0.0;0;;;;;;;0;9;74;5;80;1;175
02:06:19.582;-80;0;-9.09668;0.0;-7.5805664;0;-6;1;-1.2524414;0.0;-1.2304688;0;510;-1;8.283691;0.0;0.0;0;;;;;;;0;13;72;7;78;1;169
02:06:19.637;-84;-3;-9.09668;0.0;-7.5805664;0;-5;7;-1.2524414;0.0;-1.2304688;0;507;0;8.305664;0.0;0.0;0;;;;;;;0;12;72;7;76;1;160
02:06:19.686;-82;2;-9.09668;0.0;-7.5805664;0;-6;-3;-1.2524414;0.0;-1.2304688;0;503;0;8.283691;0.0;0.0;0;;;;;;;0;5;71;3;77;1;151
02:06:19.731;-82;5;-9.09668;0.0;-7.5805664;0;-6;-12;-1.2524414;0.0;-1.2304688;0;510;1;8.283691;0.0;0.0;0;;;;;;;0;6;71;4;76;1;142
02:06:19.791;-81;0;-9.09668;0.0;-7.5805664;0;-5;-2;-1.2524414;0.0;-1.2304688;0;510;-3;8.283691;0.0;0.0;0;;;;;;;0;12;71;7;75;1;134
02:06:19.839;-81;0;-9.09668;0.0;-7.5805664;0;-6;2;-1.2524414;0.0;-1.2304688;0;505;0;8.283691;0.0;0.0;0;;;;;;;0;5;71;3;74;1;131
02:06:19.896;-83;-8;-9.09668;0.0;-7.5805664;0;-8;9;-1.2524414;0.0;-1.2304688;0;507;0;8.283691;0.0;0.0;0;;;;;;;0;4;69;2;73;0;125
02:06:19.942;-83;11;-9.09668;0.0;-7.5805664;0;-7;-17;-1.2524414;0.0;-1.2304688;0;509;0;8.283691;0.0;0.0;0;;;;;;;0;10;70;5;73;0;126
02:06:19.991;-84;-3;-9.09668;0.0;-7.5805664;0;-5;6;-1.2524414;0.0;-1.2304688;0;508;-2;8.283691;0.0;0.0;0;;;;;;;0;10;68;5;72;1;136
02:06:20.47;-81;0;-9.09668;0.0;-7.5805664;0;-8;2;-1.2524414;0.0;-1.2304688;0;510;0;8.283691;0.0;0.0;0;;;;;;;0;3;67;2;74;0;161
02:06:20.97;-81;-2;-9.118652;0.0;-7.5805664;0;-7;2;-1.2524414;0.0;-1.2304688;0;504;0;8.283691;0.0;0.0;0;;;;;;;0;2;67;1;81;1;186
02:06:20.143;-79;0;-9.09668;0.0;-7.5805664;0;-5;3;-1.2524414;0.0;-1.2304688;0;509;-1;8.283691;0.0;0.0;0;;;;;;;0;2;77;1;99;1;192
02:06:20.199;-83;0;-9.09668;0.0;-7.5805664;0;-4;4;-1.2524414;0.0;-1.2304688;0;509;1;8.283691;0.0;0.0;0;;;;;;;0;2;84;1;113;1;184
02:06:20.247;-81;-3;-9.09668;0.0;-7.5805664;0;-7;4;-1.2524414;0.0;-1.2304688;0;508;-1;8.283691;0.0;0.0;0;;;;;;;0;2;83;1;108;1;182
02:06:20.304;-80;0;-9.09668;0.0;-7.5805664;0;-4;1;-1.2304688;0.0;-1.2084961;0;508;-1;8.283691;0.0;0.0;0;;;;;;;0;2;82;2;105;1;185
02:06:20.352;-82;0;-9.09668;0.0;-7.5805664;0;-6;0;-1.2304688;0.0;-1.2084961;0;507;0;8.283691;0.0;0.0;0;;;;;;;0;2;81;1;114;1;186
02:06:20.403;-81;0;-9.09668;0.0;-7.5805664;0;-5;-1;-1.2304688;0.0;-1.2084961;0;506;1;8.283691;0.0;0.0;0;;;;;;;0;2;81;1;111;1;206
02:06:20.458;-83;-4;-9.09668;0.0;-7.5805664;0;-5;6;-1.2304688;0.0;-1.2084961;0;507;0;8.283691;0.0;0.0;0;;;;;;;0;1;81;1;123;0;205
02:06:20.505;-83;0;-9.09668;0.0;-7.5805664;0;-5;0;-1.2304688;0.0;-1.2084961;0;509;0;8.283691;0.0;0.0;0;;;;;;;0;2;93;1;124;1;208
02:06:20.561;-85;0;-9.118652;0.0;-7.5805664;0;-6;1;-1.2304688;0.0;-1.2084961;0;508;0;8.283691;0.0;0.0;0;;;;;;;0;2;91;1;133;1;210
02:06:20.611;-85;-2;-9.09668;0.0;-7.5805664;0;-4;0;-1.2304688;0.0;-1.2084961;0;508;0;8.283691;0.0;0.0;0;;;;;;;0;2;89;1;137;0;208
02:06:20.659;-80;-3;-9.09668;0.0;-7.5805664;0;-6;5;-1.2304688;0.0;-1.2084961;0;507;0;8.283691;0.0;0.0;0;;;;;;;0;3;87;2;130;1;210
02:06:20.713;-81;0;-9.118652;0.0;-7.5805664;0;-7;-1;-1.2304688;0.0;-1.2084961;0;511;0;8.283691;0.0;0.0;0;;;;;;;0;2;85;1;125;1;200
02:06:20.762;-83;0;-9.09668;0.0;-7.5805664;0;-6;5;-1.2304688;0.0;-1.2084961;0;504;0;8.283691;0.0;0.0;0;;;;;;;0;2;90;1;119;1;189
02:06:20.815;-81;1;-9.09668;0.0;-7.5805664;0;-5;0;-1.2304688;0.0;-1.1865234;0;505;-1;8.283691;0.0;0.0;0;;;;;;;0;2;88;1;116;1;196
02:06:20.863;-83;2;-9.09668;0.0;-7.5805664;0;-7;-4;-1.2304688;0.0;-1.1865234;0;508;-1;8.283691;0.0;0.0;0;;;;;;;0;1;85;1;123;0;210
02:06:20.911;-82;-1;-9.09668;0.0;-7.5805664;0;-6;2;-1.2304688;0.0;-1.1865234;0;506;-1;8.283691;0.0;0.0;0;;;;;;;0;1;90;1;124;1;203
02:06:20.971;-82;0;-9.09668;0.0;-7.5805664;0;-8;2;-1.2304688;0.0;-1.1865234;0;507;0;8.283691;0.0;0.0;0;;;;;;;0;2;88;1;121;1;200
02:06:21.20;-82;4;-9.09668;0.0;-7.5805664;0;-7;-4;-1.2304688;0.0;-1.1865234;0;510;0;8.283691;0.0;0.0;0;;;;;;;0;4;90;2;116;1;208
02:06:21.65;-82;3;-9.09668;0.0;-7.5805664;0;-6;-4;-1.2304688;0.0;-1.1865234;0;509;-1;8.283691;0.0;0.0;0;;;;;;;0;8;88;5;111;1;206
02:06:21.121;-82;2;-9.09668;0.0;-7.5805664;0;-6;-1;-1.2304688;0.0;-1.1865234;0;505;0;8.283691;0.0;0.0;0;;;;;;;0;6;87;3;108;0;209
02:06:21.169;-82;0;-9.118652;0.0;-7.5805664;0;-7;1;-1.2304688;0.0;-1.1865234;0;505;0;8.283691;0.0;0.0;0;;;;;;;0;2;85;1;108;1;223
02:06:21.218;-84;0;-9.118652;0.0;-7.5805664;0;-8;5;-1.2304688;0.0;-1.1865234;0;507;0;8.283691;0.0;0.0;0;;;;;;;0;2;93;1;104;1;211
02:06:21.266;-82;-1;-9.09668;0.0;-7.5805664;0;-6;3;-1.2084961;0.0;-1.1865234;0;505;-1;8.283691;0.0;0.0;0;;;;;;;0;1;99;1;110;0;212
02:06:21.322;-85;1;-9.118652;0.0;-7.5805664;0;-7;-2;-1.2084961;0.0;-1.1865234;0;509;-1;8.283691;0.0;0.0;0;;;;;;;0;2;96;1;115;0;242
02:06:21.371;-82;0;-9.118652;0.0;-7.5805664;0;-6;0;-1.2084961;0.0;-1.1865234;0;509;0;8.283691;0.0;0.0;0;;;;;;;0;1;94;1;117;0;233
02:06:21.427;-81;-1;-9.09668;0.0;-7.5805664;0;-6;2;-1.2084961;0.0;-1.1865234;0;511;0;8.283691;0.0;0.0;0;;;;;;;0;2;104;1;118;1;238
02:06:21.475;-81;1;-9.09668;0.0;-7.5805664;0;-6;0;-1.2084961;0.0;-1.1865234;0;506;0;8.283691;0.0;0.0;0;;;;;;;0;1;100;1;125;1;225
02:06:21.524;-85;0;-9.118652;0.0;-7.5805664;0;-6;0;-1.2084961;0.0;-1.1865234;0;508;0;8.283691;0.0;0.0;0;;;;;;;0;2;97;1;127;1;212
02:06:21.579;-80;2;-9.09668;0.0;-7.5805664;0;-6;0;-1.2084961;0.0;-1.1865234;0;509;-1;8.283691;0.0;0.0;0;;;;;;;0;1;100;1;128;0;209
02:06:21.627;-82;0;-9.09668;0.0;-7.5805664;0;-6;-4;-1.2084961;0.0;-1.1865234;0;507;0;8.283691;0.0;0.0;0;;;;;;;0;1;96;1;121;0;220
02:06:21.676;-82;-2;-9.118652;0.0;-7.5805664;0;-4;1;-1.2084961;0.0;-1.1645508;0;507;1;8.283691;0.0;0.0;0;;;;;;;0;1;98;1;130;1;218
02:06:21.737;-82;1;-9.118652;0.0;-7.5805664;0;-6;0;-1.2084961;0.0;-1.1645508;0;506;0;8.283691;0.0;0.0;0;;;;;;;0;3;96;2;125;1;223
02:06:21.782;-80;1;-9.118652;0.0;-7.5805664;0;-7;0;-1.2084961;0.0;-1.1645508;0;506;0;8.283691;0.0;0.0;0;;;;;;;0;2;93;1;125;1;206
02:06:21.831;-83;0;-9.118652;0.0;-7.602539;0;-6;-2;-1.2084961;0.0;-1.1645508;0;510;0;8.261719;0.0;0.0;0;;;;;;;0;1;93;1;121;0;205
02:06:21.887;-83;0;-9.118652;0.0;-7.5805664;0;-6;-1;-1.2084961;0.0;-1.1645508;0;507;0;8.261719;0.0;0.0;0;;;;;;;0;2;91;0;136;0;199
02:06:21.936;-81;-2;-9.118652;0.0;-7.5805664;0;-5;-1;-1.2084961;0.0;-1.1645508;0;512;-1;8.261719;0.0;0.0;0;;;;;;;0;2;93;1;144;1;194
02:06:21.992;-84;-1;-9.118652;0.0;-7.602539;0;-6;1;-1.2084961;0.0;-1.1645508;0;505;0;8.261719;0.0;0.0;0;;;;;;;0;2;90;1;146;1;193
02:06:22.38;-85;0;-9.118652;0.0;-7.602539;0;-7;-5;-1.2084961;0.0;-1.1645508;0;508;-2;8.261719;0.0;0.0;0;;;;;;;0;1;97;1;147;1;204
02:06:22.89;-82;2;-9.118652;0.0;-7.602539;0;-7;0;-1.1865234;0.0;-1.1645508;0;508;0;8.261719;0.0;0.0;0;;;;;;;0;2;100;1;144;0;209
02:06:22.143;-84;-1;-9.118652;0.0;-7.602539;0;-5;0;-1.2084961;0.0;-1.1645508;0;504;-1;8.261719;0.0;0.0;0;;;;;;;0;1;110;1;135;0;217
02:06:22.192;-83;-2;-9.118652;0.0;-7.602539;0;-7;0;-1.1865234;0.0;-1.1645508;0;506;1;8.261719;0.0;0.0;0;;;;;;;0;2;113;1;146;0;213
02:06:22.247;-82;0;-9.118652;0.0;-7.602539;0;-6;0;-1.1865234;0.0;-1.1425781;0;509;0;8.283691;0.0;0.0;0;;;;;;;0;1;113;1;152;1;209
02:06:22.298;-82;0;-9.118652;0.0;-7.602539;0;-7;0;-1.1865234;0.0;-1.1425781;0;507;0;8.283691;0.0;0.0;0;;;;;;;0;1;110;1;145;1;221
02:06:22.344;-83;0;-9.118652;0.0;-7.602539;0;-5;0;-1.1865234;0.0;-1.1425781;0;507;0;8.283691;0.0;0.0;0;;;;;;;0;1;106;1;138;0;213
02:06:22.400;-83;1;-9.118652;0.0;-7.602539;0;-5;-2;-1.1865234;0.0;-1.1425781;0;511;0;8.283691;0.0;0.0;0;;;;;;;0;1;102;0;140;0;221
02:06:22.450;-83;0;-9.118652;0.0;-7.602539;0;-5;1;-1.1865234;0.0;-1.1425781;0;507;0;8.261719;0.0;0.0;0;;;;;;;0;1;118;1;141;0;219
02:06:22.506;-82;0;-9.118652;0.0;-7.5805664;0;-7;1;-1.1865234;0.0;-1.1425781;0;508;1;8.261719;0.0;0.0;0;;;;;;;0;1;113;1;141;0;218
02:06:22.553;-81;-2;-9.118652;0.0;-7.602539;0;-6;0;-1.1865234;0.0;-1.1425781;0;505;0;8.261719;0.0;0.0;0;;;;;;;0;1;115;1;145;1;228
02:06:22.599;-82;0;-9.118652;0.0;-7.602539;0;-5;3;-1.1865234;0.0;-1.1425781;0;507;0;8.283691;0.0;0.0;0;;;;;;;0;1;135;0;149;1;217
02:06:22.656;-82;0;-9.118652;0.0;-7.602539;0;-9;1;-1.1865234;0.0;-1.1206055;0;505;0;8.283691;0.0;0.0;0;;;;;;;0;2;129;1;147;0;208
02:06:22.703;-82;-2;-9.118652;0.0;-7.602539;0;-4;-4;-1.1865234;0.0;-1.1206055;0;510;2;8.261719;0.0;0.0;0;;;;;;;0;2;128;1;142;0;200
02:06:22.752;-82;1;-9.118652;0.0;-7.602539;0;-7;0;-1.1865234;0.0;-1.1425781;0;506;-3;8.261719;0.0;0.0;0;;;;;;;0;2;128;1;141;1;207
02:06:22.810;-81;0;-9.118652;0.0;-7.602539;0;-4;3;-1.1865234;0.0;-1.1425781;0;508;0;8.261719;0.0;0.0;0;;;;;;;0;1;126;1;147;1;218
02:06:22.861;-83;-1;-9.118652;0.0;-7.602539;0;-6;1;-1.1865234;0.0;-1.1425781;0;507;-1;8.261719;0.0;0.0;0;;;;;;;0;1;133;1;147;0;207
02:06:22.914;-83;-1;-9.118652;0.0;-7.602539;0;-6;-1;-1.1865234;0.0;-1.1206055;0;507;0;8.261719;0.0;0.0;0;;;;;;;0;1;130;1;144;1;196
02:06:22.963;-83;1;-9.118652;0.0;-7.602539;0;-7;0;-1.1865234;0.0;-1.1206055;0;510;-1;8.261719;0.0;0.0;0;;;;;;;0;2;129;1;141;0;194
02:06:23.13;-82;0;-9.118652;0.0;-7.602539;0;-8;-1;-1.1865234;0.0;-1.1206055;0;508;0;8.261719;0.0;0.0;0;;;;;;;0;1;135;1;152;1;191
02:06:23.65;-81;1;-9.118652;0.0;-7.602539;0;-7;-2;-1.1865234;0.0;-1.1206055;0;508;-1;8.261719;0.0;0.0;0;;;;;;;0;1;139;1;151;1;188
02:06:23.113;-80;0;-9.118652;0.0;-7.602539;0;-5;3;-1.1645508;0.0;-1.1206055;0;509;0;8.261719;0.0;0.0;0;;;;;;;0;1;143;1;155;0;183
02:06:23.164;-79;0;-9.118652;0.0;-7.602539;0;-4;-5;-1.1645508;0.0;-1.1206055;0;510;-1;8.261719;0.0;0.0;0;;;;;;;0;1;137;1;152;1;194
02:06:23.220;-82;1;-9.118652;0.0;-7.602539;0;-7;-1;-1.1645508;0.0;-1.1206055;0;508;0;8.261719;0.0;0.0;0;;;;;;;0;2;137;1;158;1;202
02:06:23.269;-84;-1;-9.118652;0.0;-7.602539;0;-7;-2;-1.1645508;0.0;-1.1206055;0;508;1;8.261719;0.0;0.0;0;;;;;;;0;2;130;1;154;1;198
02:06:23.324;-83;0;-9.118652;0.0;-7.602539;0;-6;0;-1.1645508;0.0;-1.1206055;0;505;0;8.261719;0.0;0.0;0;;;;;;;0;1;124;0;148;1;188
02:06:23.375;-82;0;-9.118652;0.0;-7.602539;0;-6;0;-1.1645508;0.0;-1.1206055;0;509;0;8.261719;0.0;0.0;0;;;;;;;0;2;118;1;147;1;187
02:06:23.429;-84;2;-9.118652;0.0;-7.602539;0;-6;-2;-1.1645508;0.0;-1.1206055;0;509;0;8.261719;0.0;0.0;0;;;;;;;0;3;114;1;144;1;186
02:06:23.478;-82;1;-9.118652;0.0;-7.602539;0;-7;-3;-1.1645508;0.0;-1.1206055;0;509;1;8.261719;0.0;0.0;0;;;;;;;0;1;109;1;143;1;193
02:06:23.525;-82;2;-9.118652;0.0;-7.602539;0;-5;4;-1.1645508;0.0;-1.1206055;0;506;0;8.261719;0.0;0.0;0;;;;;;;0;1;108;1;140;1;194
02:06:23.583;-80;1;-9.118652;0.0;-7.602539;0;-5;1;-1.1645508;0.0;-1.0986328;0;508;-1;8.261719;0.0;0.0;0;;;;;;;0;1;112;0;146;1;194
02:06:23.630;-84;0;-9.118652;0.0;-7.602539;0;-5;0;-1.1645508;0.0;-1.0986328;0;505;-1;8.261719;0.0;0.0;0;;;;;;;0;1;110;0;148;0;184
02:06:23.687;-81;1;-9.118652;0.0;-7.602539;0;-8;2;-1.1645508;0.0;-1.0986328;0;507;0;8.261719;0.0;0.0;0;;;;;;;0;1;116;1;154;1;203
02:06:23.735;-82;2;-9.118652;0.0;-7.602539;0;-6;2;-1.1645508;0.0;-1.0986328;0;507;0;8.261719;0.0;0.0;0;;;;;;;0;2;125;1;167;1;195
02:06:23.783;-82;2;-9.118652;0.0;-7.602539;0;-6;1;-1.1645508;0.0;-1.0986328;0;506;0;8.261719;0.0;0.0;0;;;;;;;0;1;131;1;168;1;192
02:06:23.837;-81;0;-9.118652;0.0;-7.602539;0;-7;-4;-1.1645508;0.0;-1.0986328;0;506;2;8.261719;0.0;0.0;0;;;;;;;0;1;126;1;171;1;202
02:06:23.887;-85;1;-9.118652;0.0;-7.602539;0;-8;-4;-1.1645508;0.0;-1.0986328;0;507;-2;8.261719;0.0;0.0;0;;;;;;;0;1;120;1;164;0;191
02:06:23.943;-80;2;-9.118652;0.0;-7.602539;0;-8;-1;-1.1645508;0.0;-1.0986328;0;511;0;8.261719;0.0;0.0;0;;;;;;;0;1;115;1;158;1;196
02:06:23.992;-81;-1;-9.118652;0.0;-7.602539;0;-6;3;-1.1645508;0.0;-1.0986328;0;508;-1;8.261719;0.0;0.0;0;;;;;;;0;2;110;1;150;1;198
02:06:24.42;-83;1;-9.118652;0.0;-7.602539;0;-6;-2;-1.1645508;0.0;-1.0986328;0;507;0;8.261719;0.0;0.0;0;;;;;;;0;2;106;1;143;1;210
02:06:24.95;-82;0;-9.118652;0.0;-7.602539;0;-6;-1;-1.1425781;0.0;-1.0986328;0;505;-1;8.261719;0.0;0.0;0;;;;;;;0;2;110;1;135;0;208
02:06:24.143;-82;0;-9.118652;0.0;-7.602539;0;-4;0;-1.1425781;0.0;-1.0986328;0;506;-2;8.261719;0.0;0.0;0;;;;;;;0;2;116;1;135;1;218
02:06:24.198;-82;-1;-9.118652;0.0;-7.602539;0;-7;0;-1.1425781;0.0;-1.0986328;0;507;0;8.261719;0.0;0.0;0;;;;;;;0;4;112;2;129;1;205
02:06:24.247;-81;-1;-9.118652;0.0;-7.602539;0;-5;5;-1.1425781;0.0;-1.0986328;0;508;-1;8.261719;0.0;0.0;0;;;;;;;0;3;108;1;124;0;207
02:06:24.304;-83;0;-9.118652;0.0;-7.602539;0;-7;2;-1.1425781;0.0;-1.0986328;0;506;0;8.261719;0.0;0.0;0;;;;;;;0;5;105;3;118;1;200
02:06:24.354;-82;0;-9.118652;0.0;-7.602539;0;-6;2;-1.1425781;0.0;-1.0986328;0;505;-1;8.261719;0.0;0.0;0;;;;;;;0;4;101;2;113;0;191
02:06:24.402;-82;0;-9.118652;0.0;-7.602539;0;-8;-5;-1.1425781;0.0;-1.0986328;0;511;1;8.261719;0.0;0.0;0;;;;;;;0;2;98;2;113;0;208
02:06:24.459;-84;1;-9.118652;0.0;-7.602539;0;-8;0;-1.1425781;0.0;-1.0986328;0;509;-1;8.261719;0.0;0.0;0;;;;;;;0;2;96;1;109;1;215
02:06:24.506;-82;0;-9.118652;0.0;-7.602539;0;-6;2;-1.1425781;0.0;-1.0986328;0;508;0;8.261719;0.0;0.0;0;;;;;;;0;1;98;1;106;0;225
02:06:24.553;-82;0;-9.118652;0.0;-7.602539;0;-6;0;-1.1425781;0.0;-1.0766602;0;509;1;8.261719;0.0;0.0;0;;;;;;;0;1;102;0;102;1;213
02:06:24.611;-83;2;-9.118652;0.0;-7.602539;0;-5;-5;-1.1425781;0.0;-1.0766602;0;507;0;8.261719;0.0;0.0;0;;;;;;;0;1;99;1;123;1;211
02:06:24.660;-85;3;-9.118652;0.0;-7.602539;0;-5;-3;-1.1425781;0.0;-1.0986328;0;506;1;8.261719;0.0;0.0;0;;;;;;;0;2;97;1;118;0;205
02:06:24.714;-81;0;-9.118652;0.0;-7.602539;0;-5;0;-1.1425781;0.0;-1.0766602;0;508;1;8.261719;0.0;0.0;0;;;;;;;0;6;95;3;113;1;204
02:06:24.762;-83;2;-9.118652;0.0;-7.602539;0;-7;-10;-1.1425781;0.0;-1.0986328;0;507;0;8.261719;0.0;0.0;0;;;;;;;0;5;92;3;109;1;204
02:06:24.819;-83;3;-9.118652;0.0;-7.602539;0;-6;-2;-1.1425781;0.0;-1.0766602;0;505;1;8.261719;0.0;0.0;0;;;;;;;0;4;91;2;106;1;191
02:06:24.867;-83;-1;-9.118652;0.0;-7.602539;0;-7;0;-1.1425781;0.0;-1.0766602;0;508;-1;8.261719;0.0;0.0;0;;;;;;;0;2;89;1;105;1;183
02:06:24.915;-82;2;-9.118652;0.0;-7.602539;0;-8;-6;-1.1425781;0.0;-1.0766602;0;508;1;8.261719;0.0;0.0;0;;;;;;;0;2;87;1;106;0;191
02:06:24.973;-85;-2;-9.118652;0.0;-7.602539;0;-7;0;-1.1206055;0.0;-1.0766602;0;504;0;8.261719;0.0;0.0;0;;;;;;;0;3;85;2;105;1;189
02:06:25.21;-82;0;-9.118652;0.0;-7.602539;0;-5;-4;-1.1206055;0.0;-1.0766602;0;509;1;8.261719;0.0;0.0;0;;;;;;;0;2;83;1;108;0;196
02:06:25.78;-82;0;-9.118652;0.0;-7.602539;0;-4;0;-1.1206055;0.0;-1.0766602;0;507;0;8.261719;0.0;0.0;0;;;;;;;0;1;90;1;113;0;200
02:06:25.125;-82;-1;-9.118652;0.0;-7.602539;0;-5;0;-1.1206055;0.0;-1.0766602;0;507;-1;8.261719;0.0;0.0;0;;;;;;;0;1;95;0;121;0;199
02:06:25.174;-82;-2;-9.118652;0.0;-7.602539;0;-6;3;-1.1206055;0.0;-1.0766602;0;509;0;8.261719;0.0;0.0;0;;;;;;;0;2;104;1;121;1;197
02:06:25.226;-83;0;-9.118652;0.0;-7.602539;0;-7;-1;-1.1206055;0.0;-1.0766602;0;507;1;8.261719;0.0;0.0;0;;;;;;;0;4;100;2;114;1;188
02:06:25.274;-81;0;-9.118652;0.0;-7.602539;0;-5;-1;-1.1206055;0.0;-1.0766602;0;507;-1;8.261719;0.0;0.0;0;;;;;;;0;2;98;1;110;1;188
02:06:25.326;-83;2;-9.118652;0.0;-7.602539;0;-7;-2;-1.1206055;0.0;-1.0546875;0;507;1;8.261719;0.0;0.0;0;;;;;;;0;2;97;1;107;1;185
02:06:25.381;-83;1;-9.118652;0.0;-7.602539;0;-6;-1;-1.1206055;0.0;-1.0766602;0;508;0;8.261719;0.0;0.0;0;;;;;;;0;2;95;1;103;1;182
02:06:25.429;-83;0;-9.118652;0.0;-7.602539;0;-4;-1;-1.1206055;0.0;-1.0546875;0;507;0;8.261719;0.0;0.0;0;;;;;;;0;2;95;1;100;0;192
02:06:25.485;-83;-1;-9.118652;0.0;-7.602539;0;-6;0;-1.1206055;0.0;-1.0546875;0;507;0;8.261719;0.0;0.0;0;;;;;;;0;2;93;1;110;1;215
02:06:25.537;-84;2;-9.118652;0.0;-7.602539;0;-5;-2;-1.1206055;0.0;-1.0546875;0;505;-2;8.261719;0.0;0.0;0;;;;;;;0;1;105;1;108;0;201
02:06:25.583;-83;0;-9.118652;0.0;-7.602539;0;-5;3;-1.1206055;0.0;-1.0546875;0;506;-1;8.261719;0.0;0.0;0;;;;;;;0;1;109;1;110;1;197
02:06:25.638;-83;0;-9.118652;0.0;-7.602539;0;-6;-1;-1.1206055;0.0;-1.0546875;0;506;0;8.261719;0.0;0.0;0;;;;;;;0;2;106;1;110;1;197
02:06:25.684;-82;-1;-9.118652;0.0;-7.602539;0;-5;-4;-1.1206055;0.0;-1.0546875;0;511;-2;8.261719;0.0;0.0;0;;;;;;;0;2;103;2;108;1;200
